[
  {
    "name": "10-56 Brewing Company",
    "brewery_type": "micro",
    "street": "400 Brown Cir",
    "address_2": null,
    "address_3": null,
    "city": "Knox",
    "state_province": "Indiana",
    "postal_code": "46534",
    "country": "United States",
    "longitude": -86.627954,
    "latitude": 41.289715,
    "phone": "6308165790",
    "website_url": null,
    "state": "IN",
    "region": null,
    "amenities": "[]",
    "description": null,
    "hours": "{}",
    "image_url": null
  },
  {
    "name": "18th Street Brewery",
    "brewery_type": "micro",
    "street": "5725 Miller Ave",
    "address_2": null,
    "address_3": null,
    "city": "Gary",
    "state_province": "Indiana",
    "postal_code": "46403-2871",
    "country": "United States",
    "longitude": -87.26887786,
    "latitude": 41.59928343,
    "phone": null,
    "website_url": "http://www.18thstreetbrewery.com",
    "state": "IN",
    "region": null,
    "amenities": "[]",
    "description": null,
    "hours": "{}",
    "image_url": null
  },
  {
    "name": "18th Street Brewery",
    "brewery_type": "micro",
    "street": "5417 Oakley Ave",
    "address_2": null,
    "address_3": null,
    "city": "Hammond",
    "state_province": "Indiana",
    "postal_code": "46320-1817",
    "country": "United States",
    "longitude": -87.517422,
    "latitude": 41.61556796,
    "phone": null,
    "website_url": null,
    "state": "IN",
    "region": null,
    "amenities": "[]",
    "description": null,
    "hours": "{}",
    "image_url": null
  },
  {
    "name": "450 North Brewing Company @ Simmons Winery",
    "brewery_type": "brewpub",
    "street": "8111 E 450 N",
    "address_2": null,
    "address_3": null,
    "city": "Columbus",
    "state_province": "Indiana",
    "postal_code": "47203-8106",
    "country": "United States",
    "longitude": null,
    "latitude": null,
    "phone": "8125460091",
    "website_url": "http://www.450northbrewing.com",
    "state": "IN",
    "region": null,
    "amenities": "[]",
    "description": null,
    "hours": "{}",
    "image_url": null
  },
  {
    "name": "95ate5 Brewpub",
    "brewery_type": "brewpub",
    "street": "9585 N Industrial Dr",
    "address_2": null,
    "address_3": null,
    "city": "Saint John",
    "state_province": "Indiana",
    "postal_code": "46373",
    "country": "United States",
    "longitude": -87.46380305,
    "latitude": 41.44400246,
    "phone": "2193656506",
    "website_url": "http://www.95ate5.com",
    "state": "IN",
    "region": null,
    "amenities": "[]",
    "description": null,
    "hours": "{}",
    "image_url": null
  },
  {
    "name": "Auburn Brewing Company",
    "brewery_type": "planning",
    "street": null,
    "address_2": null,
    "address_3": null,
    "city": "Auburn",
    "state_province": "Indiana",
    "postal_code": "46706",
    "country": "United States",
    "longitude": null,
    "latitude": null,
    "phone": "2609081074",
    "website_url": null,
    "state": "IN",
    "region": null,
    "amenities": "[]",
    "description": null,
    "hours": "{}",
    "image_url": null
  },
  {
    "name": "Back Alley Brewing Co",
    "brewery_type": "micro",
    "street": "211 S Main St",
    "address_2": null,
    "address_3": null,
    "city": "Goshen",
    "state_province": "Indiana",
    "postal_code": "46526-3722",
    "country": "United States",
    "longitude": -85.83457862,
    "latitude": 41.58461971,
    "phone": "5743704049",
    "website_url": null,
    "state": "IN",
    "region": null,
    "amenities": "[]",
    "description": null,
    "hours": "{}",
    "image_url": null
  },
  {
    "name": "Back Road Brewery",
    "brewery_type": "micro",
    "street": "308 Perry St",
    "address_2": null,
    "address_3": null,
    "city": "La Porte",
    "state_province": "Indiana",
    "postal_code": "46350-3216",
    "country": "United States",
    "longitude": -86.72649137,
    "latitude": 41.6118882,
    "phone": "2193627623",
    "website_url": "http://www.backroadbrewery.com",
    "state": "IN",
    "region": null,
    "amenities": "[]",
    "description": null,
    "hours": "{}",
    "image_url": null
  },
  {
    "name": "Backstep Brewing Company",
    "brewery_type": "micro",
    "street": "125 N Green St",
    "address_2": null,
    "address_3": null,
    "city": "Crawfordsville",
    "state_province": "Indiana",
    "postal_code": "47933-1708",
    "country": "United States",
    "longitude": -86.89998607,
    "latitude": 40.04207712,
    "phone": "7652302337",
    "website_url": "http://www.backstepbrewingcompany.com",
    "state": "IN",
    "region": null,
    "amenities": "[]",
    "description": null,
    "hours": "{}",
    "image_url": null
  },
  {
    "name": "Bad Dad Brewery",
    "brewery_type": "micro",
    "street": "407 W. Washington St. Ste. C",
    "address_2": null,
    "address_3": null,
    "city": "Fairmount",
    "state_province": "Indiana",
    "postal_code": "46928",
    "country": "United States",
    "longitude": null,
    "latitude": null,
    "phone": "7654990941",
    "website_url": "http://www.baddadbrewery.com",
    "state": "IN",
    "region": null,
    "amenities": "[]",
    "description": null,
    "hours": "{}",
    "image_url": null
  },
  {
    "name": "Bare Hands Brewery",
    "brewery_type": "micro",
    "street": "12804 Sandy Ct",
    "address_2": null,
    "address_3": null,
    "city": "Granger",
    "state_province": "Indiana",
    "postal_code": "46530-4309",
    "country": "United States",
    "longitude": null,
    "latitude": null,
    "phone": "5742772258",
    "website_url": "http://www.barehandsbrewbrewery.com",
    "state": "IN",
    "region": null,
    "amenities": "[]",
    "description": null,
    "hours": "{}",
    "image_url": null
  },
  {
    "name": "Barley Island Brewing Co",
    "brewery_type": "brewpub",
    "street": "639 E Conner St",
    "address_2": null,
    "address_3": null,
    "city": "Noblesville",
    "state_province": "Indiana",
    "postal_code": "46060-2532",
    "country": "United States",
    "longitude": null,
    "latitude": null,
    "phone": "3177705280",
    "website_url": "http://www.barleyisland.com",
    "state": "IN",
    "region": null,
    "amenities": "[]",
    "description": null,
    "hours": "{}",
    "image_url": null
  },
  {
    "name": "Basket Case Brewing Co",
    "brewery_type": "brewpub",
    "street": "1340 Mill St",
    "address_2": null,
    "address_3": null,
    "city": "Jasper",
    "state_province": "Indiana",
    "postal_code": "47546-2310",
    "country": "United States",
    "longitude": -86.92850063,
    "latitude": 38.39736355,
    "phone": "8124824345",
    "website_url": "http://www.basketcasebeer.com",
    "state": "IN",
    "region": null,
    "amenities": "[]",
    "description": null,
    "hours": "{}",
    "image_url": null
  },
  {
    "name": "Bier Brewery and Taproom",
    "brewery_type": "micro",
    "street": "5133 E 65th St",
    "address_2": null,
    "address_3": null,
    "city": "Indianapolis",
    "state_province": "Indiana",
    "postal_code": "46220-4816",
    "country": "United States",
    "longitude": null,
    "latitude": null,
    "phone": "3176960200",
    "website_url": "http://www.bierbrewery.com",
    "state": "IN",
    "region": null,
    "amenities": "[]",
    "description": null,
    "hours": "{}",
    "image_url": null
  },
  {
    "name": "Big Leaf Brewing",
    "brewery_type": "micro",
    "street": "1320 Durkees Ferry Rd",
    "address_2": null,
    "address_3": null,
    "city": "West Terre Haute",
    "state_province": "Indiana",
    "postal_code": "47885-9626",
    "country": "United States",
    "longitude": null,
    "latitude": null,
    "phone": "8122812187",
    "website_url": null,
    "state": "IN",
    "region": null,
    "amenities": "[]",
    "description": null,
    "hours": "{}",
    "image_url": null
  },
  {
    "name": "Big Lug Canteen",
    "brewery_type": "brewpub",
    "street": "1435 E 86th St",
    "address_2": null,
    "address_3": null,
    "city": "Indianapolis",
    "state_province": "Indiana",
    "postal_code": "46240-1911",
    "country": "United States",
    "longitude": -86.079957,
    "latitude": 39.912628,
    "phone": null,
    "website_url": null,
    "state": "IN",
    "region": null,
    "amenities": "[]",
    "description": null,
    "hours": "{}",
    "image_url": null
  },
  {
    "name": "Birdboy Brewing Co",
    "brewery_type": "micro",
    "street": "210 E Collins Rd",
    "address_2": null,
    "address_3": null,
    "city": "Fort Wayne",
    "state_province": "Indiana",
    "postal_code": "46825-5304",
    "country": "United States",
    "longitude": -85.13900142,
    "latitude": 41.12187792,
    "phone": "2605795508",
    "website_url": "http://www.birdboybrewing.com",
    "state": "IN",
    "region": null,
    "amenities": "[]",
    "description": null,
    "hours": "{}",
    "image_url": null
  },
  {
    "name": "Black Acre Brewing Co",
    "brewery_type": "brewpub",
    "street": "5632 E Washington St",
    "address_2": null,
    "address_3": null,
    "city": "Indianapolis",
    "state_province": "Indiana",
    "postal_code": "46219-6428",
    "country": "United States",
    "longitude": -86.1452662,
    "latitude": 39.7668669,
    "phone": "3177973316",
    "website_url": "http://www.blackacrebrewing.com",
    "state": "IN",
    "region": null,
    "amenities": "[]",
    "description": null,
    "hours": "{}",
    "image_url": null
  },
  {
    "name": "Black Circle Brewing Co",
    "brewery_type": "micro",
    "street": "2201 E 46th St",
    "address_2": null,
    "address_3": null,
    "city": "Indianapolis",
    "state_province": "Indiana",
    "postal_code": "46205",
    "country": "United States",
    "longitude": -86.123944,
    "latitude": 39.8398813,
    "phone": "3174260143",
    "website_url": "http://www.blackcirclebrewing.com",
    "state": "IN",
    "region": null,
    "amenities": "[]",
    "description": null,
    "hours": "{}",
    "image_url": null
  },
  {
    "name": "Black Swan Brewpub",
    "brewery_type": "brewpub",
    "street": "2067 E Hadley Rd",
    "address_2": null,
    "address_3": null,
    "city": "Plainfield",
    "state_province": "Indiana",
    "postal_code": "46168-7484",
    "country": "United States",
    "longitude": -86.374141,
    "latitude": 39.674729,
    "phone": "3178387444",
    "website_url": "http://www.blackswanbrewpub.com",
    "state": "IN",
    "region": null,
    "amenities": "[]",
    "description": null,
    "hours": "{}",
    "image_url": null
  },
  {
    "name": "Blind Owl Brewery",
    "brewery_type": "brewpub",
    "street": "5014 E 62nd St",
    "address_2": null,
    "address_3": null,
    "city": "Indianapolis",
    "state_province": "Indiana",
    "postal_code": "46220-5228",
    "country": "United States",
    "longitude": null,
    "latitude": null,
    "phone": "3179241000",
    "website_url": "http://www.blindowlbrewery.com",
    "state": "IN",
    "region": null,
    "amenities": "[]",
    "description": null,
    "hours": "{}",
    "image_url": null
  },
  {
    "name": "Bloomington Brewing Co",
    "brewery_type": "brewpub",
    "street": "1795 E 10th St",
    "address_2": null,
    "address_3": null,
    "city": "Bloomington",
    "state_province": "Indiana",
    "postal_code": "47407-6955",
    "country": "United States",
    "longitude": -86.51136673,
    "latitude": 39.1720504,
    "phone": "8123392256",
    "website_url": null,
    "state": "IN",
    "region": null,
    "amenities": "[]",
    "description": null,
    "hours": "{}",
    "image_url": null
  },
  {
    "name": "Bloomington Brewing Co - Production Facility",
    "brewery_type": "micro",
    "street": "2234 West Industrial Drive",
    "address_2": null,
    "address_3": null,
    "city": "Bloomington",
    "state_province": "Indiana",
    "postal_code": "47404",
    "country": "United States",
    "longitude": null,
    "latitude": null,
    "phone": "8126992005",
    "website_url": "http://www.bbcbloomington.com",
    "state": "IN",
    "region": null,
    "amenities": "[]",
    "description": null,
    "hours": "{}",
    "image_url": null
  },
  {
    "name": "Books & Brews",
    "brewery_type": "brewpub",
    "street": "9402 Uptown Dr Ste 1400",
    "address_2": null,
    "address_3": null,
    "city": "Indianapolis",
    "state_province": "Indiana",
    "postal_code": "46256-1076",
    "country": "United States",
    "longitude": null,
    "latitude": null,
    "phone": "3172885136",
    "website_url": "http://www.booksnbrews.com",
    "state": "IN",
    "region": null,
    "amenities": "[]",
    "description": null,
    "hours": "{}",
    "image_url": null
  },
  {
    "name": "Brew Link Brewing",
    "brewery_type": "proprietor",
    "street": "212 E. Main",
    "address_2": null,
    "address_3": null,
    "city": "Plainfield",
    "state_province": "Indiana",
    "postal_code": "46168-9659",
    "country": "United States",
    "longitude": null,
    "latitude": null,
    "phone": "3172037788",
    "website_url": "http://www.brewlinkbrewing.com",
    "state": "IN",
    "region": null,
    "amenities": "[]",
    "description": null,
    "hours": "{}",
    "image_url": null
  },
  {
    "name": "Broad Ripple Brewing Co",
    "brewery_type": "brewpub",
    "street": "842 E 65th St",
    "address_2": null,
    "address_3": null,
    "city": "Indianapolis",
    "state_province": "Indiana",
    "postal_code": "46220-1674",
    "country": "United States",
    "longitude": null,
    "latitude": null,
    "phone": "3172532739",
    "website_url": null,
    "state": "IN",
    "region": null,
    "amenities": "[]",
    "description": null,
    "hours": "{}",
    "image_url": null
  },
  {
    "name": "Brokerage Brewing Company",
    "brewery_type": "micro",
    "street": "2516 Covington St",
    "address_2": null,
    "address_3": null,
    "city": "West Lafayette",
    "state_province": "Indiana",
    "postal_code": "47906-1404",
    "country": "United States",
    "longitude": -86.91414689,
    "latitude": 40.45361124,
    "phone": "7652332767",
    "website_url": "http://www.brokeragebrewing.com",
    "state": "IN",
    "region": null,
    "amenities": "[]",
    "description": null,
    "hours": "{}",
    "image_url": null
  },
  {
    "name": "Brugge Brasserie",
    "brewery_type": "brewpub",
    "street": "1011A E Westfield Blvd",
    "address_2": null,
    "address_3": null,
    "city": "Indianapolis",
    "state_province": "Indiana",
    "postal_code": "46220-",
    "country": "United States",
    "longitude": null,
    "latitude": null,
    "phone": "3172550978",
    "website_url": "http://www.bruggebrasserie.com",
    "state": "IN",
    "region": null,
    "amenities": "[]",
    "description": null,
    "hours": "{}",
    "image_url": null
  },
  {
    "name": "Bulldog Brewing",
    "brewery_type": "brewpub",
    "street": "1409 119th St",
    "address_2": null,
    "address_3": null,
    "city": "Whiting",
    "state_province": "Indiana",
    "postal_code": "46394-1714",
    "country": "United States",
    "longitude": -87.4951351,
    "latitude": 41.679491,
    "phone": "2196555284",
    "website_url": "http://www.bulldogbrewingco.com",
    "state": "IN",
    "region": null,
    "amenities": "[]",
    "description": null,
    "hours": "{}",
    "image_url": null
  },
  {
    "name": "Burn'Em Brewing",
    "brewery_type": "brewpub",
    "street": "718 Freyer Rd",
    "address_2": null,
    "address_3": null,
    "city": "Michigan City",
    "state_province": "Indiana",
    "postal_code": "46360-1911",
    "country": "United States",
    "longitude": -86.82979191,
    "latitude": 41.73849717,
    "phone": "2193938606",
    "website_url": "http://www.burnembrewing.com",
    "state": "IN",
    "region": null,
    "amenities": "[]",
    "description": null,
    "hours": "{}",
    "image_url": null
  },
  {
    "name": "Byway Brewing Company",
    "brewery_type": "brewpub",
    "street": "2825 Carlson Dr",
    "address_2": null,
    "address_3": null,
    "city": "Hammond",
    "state_province": "Indiana",
    "postal_code": "46323-1183",
    "country": "United States",
    "longitude": null,
    "latitude": null,
    "phone": "2198445458",
    "website_url": "http://www.bywaybrewing.beer",
    "state": "IN",
    "region": null,
    "amenities": "[]",
    "description": null,
    "hours": "{}",
    "image_url": null
  },
  {
    "name": "Cannon Ball Brewing Company",
    "brewery_type": "brewpub",
    "street": "1702 Bellefontaine St",
    "address_2": null,
    "address_3": null,
    "city": "Indianapolis",
    "state_province": "Indiana",
    "postal_code": "46202-1813",
    "country": "United States",
    "longitude": -86.14245603,
    "latitude": 39.79046798,
    "phone": "3174265978",
    "website_url": "http://www.cannonballbrewingindy.com",
    "state": "IN",
    "region": null,
    "amenities": "[]",
    "description": null,
    "hours": "{}",
    "image_url": null
  },
  {
    "name": "Carbon Brewing Company",
    "brewery_type": "planning",
    "street": null,
    "address_2": null,
    "address_3": null,
    "city": "Brazil",
    "state_province": "Indiana",
    "postal_code": "47834-7046",
    "country": "United States",
    "longitude": null,
    "latitude": null,
    "phone": null,
    "website_url": "http://www.carbonbrewing.com",
    "state": "IN",
    "region": null,
    "amenities": "[]",
    "description": null,
    "hours": "{}",
    "image_url": null
  },
  {
    "name": "Carson's Brewery",
    "brewery_type": "micro",
    "street": "2404 Lynch Rd",
    "address_2": null,
    "address_3": null,
    "city": "Evansville",
    "state_province": "Indiana",
    "postal_code": "47711-2953",
    "country": "United States",
    "longitude": null,
    "latitude": null,
    "phone": "8127598229",
    "website_url": "http://www.carsonsbrewery.com",
    "state": "IN",
    "region": null,
    "amenities": "[]",
    "description": null,
    "hours": "{}",
    "image_url": null
  },
  {
    "name": "Cedar Creek Brewing Co.",
    "brewery_type": "micro",
    "street": "3820 Leonard Rd",
    "address_2": null,
    "address_3": null,
    "city": "Martinsville",
    "state_province": "Indiana",
    "postal_code": "46151-5600",
    "country": "United States",
    "longitude": null,
    "latitude": null,
    "phone": "7653429000",
    "website_url": "http://www.drinkatthecreek.com",
    "state": "IN",
    "region": null,
    "amenities": "[]",
    "description": null,
    "hours": "{}",
    "image_url": null
  },
  {
    "name": "Centerpoint Brewing",
    "brewery_type": "micro",
    "street": "1125 E Brookside Ave",
    "address_2": null,
    "address_3": null,
    "city": "Indianapolis",
    "state_province": "Indiana",
    "postal_code": "46202-3587",
    "country": "United States",
    "longitude": -86.13740465,
    "latitude": 39.78129031,
    "phone": "3176028386",
    "website_url": "http://www.centerpointbrewing.com",
    "state": "IN",
    "region": null,
    "amenities": "[]",
    "description": null,
    "hours": "{}",
    "image_url": null
  },
  {
    "name": "Central State Brewing",
    "brewery_type": "micro",
    "street": "4001 E 26th St",
    "address_2": null,
    "address_3": null,
    "city": "Indianapolis",
    "state_province": "Indiana",
    "postal_code": "46218",
    "country": "United States",
    "longitude": -86.099105,
    "latitude": 39.805091,
    "phone": "3174079855",
    "website_url": "http://centralstatebrewing.com",
    "state": "IN",
    "region": null,
    "amenities": "[]",
    "description": null,
    "hours": "{}",
    "image_url": null
  },
  {
    "name": "Chapman's Brewing Company",
    "brewery_type": "brewpub",
    "street": "300 Industrial Dr",
    "address_2": null,
    "address_3": null,
    "city": "Angola",
    "state_province": "Indiana",
    "postal_code": "46703-1053",
    "country": "United States",
    "longitude": -85.00164782,
    "latitude": 41.64836256,
    "phone": "2603195495",
    "website_url": "http://www.chapmansbrewing.com",
    "state": "IN",
    "region": null,
    "amenities": "[]",
    "description": null,
    "hours": "{}",
    "image_url": null
  },
  {
    "name": "Chapman's Brewing Company",
    "brewery_type": "planning",
    "street": null,
    "address_2": null,
    "address_3": null,
    "city": "Wabash",
    "state_province": "Indiana",
    "postal_code": "46992-3131",
    "country": "United States",
    "longitude": null,
    "latitude": null,
    "phone": null,
    "website_url": "http://www.chapmansbrewing.com",
    "state": "IN",
    "region": null,
    "amenities": "[]",
    "description": null,
    "hours": "{}",
    "image_url": null
  },
  {
    "name": "Chilly Water Brewing Company",
    "brewery_type": "brewpub",
    "street": "719 Virginia Ave Ste 105",
    "address_2": null,
    "address_3": null,
    "city": "Indianapolis",
    "state_province": "Indiana",
    "postal_code": "46203-1976",
    "country": "United States",
    "longitude": null,
    "latitude": null,
    "phone": "3179640518",
    "website_url": "http://www.chillywaterbrewing.com",
    "state": "IN",
    "region": null,
    "amenities": "[]",
    "description": null,
    "hours": "{}",
    "image_url": null
  },
  {
    "name": "Civilian Brewing Corps",
    "brewery_type": "planning",
    "street": null,
    "address_2": null,
    "address_3": null,
    "city": "Bloomington",
    "state_province": "Indiana",
    "postal_code": "47403-9658",
    "country": "United States",
    "longitude": null,
    "latitude": null,
    "phone": null,
    "website_url": null,
    "state": "IN",
    "region": null,
    "amenities": "[]",
    "description": null,
    "hours": "{}",
    "image_url": null
  },
  {
    "name": "Crasian Brewing Co",
    "brewery_type": "micro",
    "street": "207 S Railroad St Ste B",
    "address_2": null,
    "address_3": null,
    "city": "Brookston",
    "state_province": "Indiana",
    "postal_code": "47923-8137",
    "country": "United States",
    "longitude": null,
    "latitude": null,
    "phone": "7655638339",
    "website_url": "http://www.crasianbrewing.com",
    "state": "IN",
    "region": null,
    "amenities": "[]",
    "description": null,
    "hours": "{}",
    "image_url": null
  },
  {
    "name": "Creatures Of Habit Brewing Co",
    "brewery_type": "planning",
    "street": null,
    "address_2": null,
    "address_3": null,
    "city": "Anderson",
    "state_province": "Indiana",
    "postal_code": "46016-1749",
    "country": "United States",
    "longitude": null,
    "latitude": null,
    "phone": "7654000116",
    "website_url": "http://facebook.com/CreaturesBrew/",
    "state": "IN",
    "region": null,
    "amenities": "[]",
    "description": null,
    "hours": "{}",
    "image_url": null
  },
  {
    "name": "Creek Bottom Brew LLC",
    "brewery_type": "planning",
    "street": null,
    "address_2": null,
    "address_3": null,
    "city": "Oldenburg",
    "state_province": "Indiana",
    "postal_code": "47036-9765",
    "country": "United States",
    "longitude": null,
    "latitude": null,
    "phone": "8122124817",
    "website_url": "http://www.creekbottombrew.com",
    "state": "IN",
    "region": null,
    "amenities": "[]",
    "description": null,
    "hours": "{}",
    "image_url": null
  },
  {
    "name": "Crooked Ewe Brewery & Ale House",
    "brewery_type": "brewpub",
    "street": "1047 Lincoln Way E",
    "address_2": null,
    "address_3": null,
    "city": "South Bend",
    "state_province": "Indiana",
    "postal_code": "46601-3726",
    "country": "United States",
    "longitude": null,
    "latitude": null,
    "phone": "5742170881",
    "website_url": "http://www.crookedewe.com",
    "state": "IN",
    "region": null,
    "amenities": "[]",
    "description": null,
    "hours": "{}",
    "image_url": null
  },
  {
    "name": "Crown Brewing Co",
    "brewery_type": "brewpub",
    "street": "211 S East St",
    "address_2": null,
    "address_3": null,
    "city": "Crown Point",
    "state_province": "Indiana",
    "postal_code": "46307-4058",
    "country": "United States",
    "longitude": null,
    "latitude": null,
    "phone": "2196634545",
    "website_url": "http://www.crownbrewing.com",
    "state": "IN",
    "region": null,
    "amenities": "[]",
    "description": null,
    "hours": "{}",
    "image_url": null
  },
  {
    "name": "Danny Boy Beer Works",
    "brewery_type": "brewpub",
    "street": "12702 Meeting House Rd",
    "address_2": null,
    "address_3": null,
    "city": "Carmel",
    "state_province": "Indiana",
    "postal_code": "46032-7292",
    "country": "United States",
    "longitude": -86.1971767,
    "latitude": 39.971556,
    "phone": "3176698080",
    "website_url": "http://www.dannyboybeerworks.com",
    "state": "IN",
    "region": null,
    "amenities": "[]",
    "description": null,
    "hours": "{}",
    "image_url": null
  },
  {
    "name": "Daredevil Brewing Company",
    "brewery_type": "micro",
    "street": "1151 Main St",
    "address_2": null,
    "address_3": null,
    "city": "Indianapolis",
    "state_province": "Indiana",
    "postal_code": "46224-6976",
    "country": "United States",
    "longitude": -86.64727,
    "latitude": 39.844367,
    "phone": null,
    "website_url": "http://www.daredevilbeer.com",
    "state": "IN",
    "region": null,
    "amenities": "[]",
    "description": null,
    "hours": "{}",
    "image_url": null
  },
  {
    "name": "Deer Creek Brewery",
    "brewery_type": "micro",
    "street": "17661 Cumberland Rd",
    "address_2": null,
    "address_3": null,
    "city": "Noblesville",
    "state_province": "Indiana",
    "postal_code": "46060-",
    "country": "United States",
    "longitude": -85.9962796,
    "latitude": 40.0443978,
    "phone": "3176748266",
    "website_url": "http://www.deercreekbrewery.com",
    "state": "IN",
    "region": null,
    "amenities": "[]",
    "description": null,
    "hours": "{}",
    "image_url": null
  },
  {
    "name": "Deviate Brewing Co",
    "brewery_type": "micro",
    "street": "4004 W 96th St",
    "address_2": null,
    "address_3": null,
    "city": "Indianapolis",
    "state_province": "Indiana",
    "postal_code": "46268-2909",
    "country": "United States",
    "longitude": null,
    "latitude": null,
    "phone": null,
    "website_url": "http://www.deviatebrewing.com",
    "state": "IN",
    "region": null,
    "amenities": "[]",
    "description": null,
    "hours": "{}",
    "image_url": null
  },
  {
    "name": "Devil's Trumpet Brewing Co",
    "brewery_type": "micro",
    "street": "8250 Utah St",
    "address_2": null,
    "address_3": null,
    "city": "Merrillville",
    "state_province": "Indiana",
    "postal_code": "46410-6578",
    "country": "United States",
    "longitude": null,
    "latitude": null,
    "phone": "2195767118",
    "website_url": "http://www.thedevilstrumpet.com",
    "state": "IN",
    "region": null,
    "amenities": "[]",
    "description": null,
    "hours": "{}",
    "image_url": null
  },
  {
    "name": "Donum Dei Brewery",
    "brewery_type": "brewpub",
    "street": "3211 Grant Line Rd Ste 3",
    "address_2": null,
    "address_3": null,
    "city": "New Albany",
    "state_province": "Indiana",
    "postal_code": "47150-2175",
    "country": "United States",
    "longitude": null,
    "latitude": null,
    "phone": "5025412950",
    "website_url": null,
    "state": "IN",
    "region": null,
    "amenities": "[]",
    "description": null,
    "hours": "{}",
    "image_url": null
  },
  {
    "name": "Evil Czech Brewery",
    "brewery_type": "brewpub",
    "street": "3703 N Main St",
    "address_2": null,
    "address_3": null,
    "city": "Mishawaka",
    "state_province": "Indiana",
    "postal_code": "46545-3111",
    "country": "United States",
    "longitude": -86.1823337,
    "latitude": 41.6939205,
    "phone": null,
    "website_url": null,
    "state": "IN",
    "region": null,
    "amenities": "[]",
    "description": null,
    "hours": "{}",
    "image_url": null
  },
  {
    "name": "Feed Store Beer Co",
    "brewery_type": "planning",
    "street": null,
    "address_2": null,
    "address_3": null,
    "city": "Bloomfield",
    "state_province": "Indiana",
    "postal_code": "47424-1137",
    "country": "United States",
    "longitude": null,
    "latitude": null,
    "phone": "8123814343",
    "website_url": "http://www.feedstorebeer.com",
    "state": "IN",
    "region": null,
    "amenities": "[]",
    "description": null,
    "hours": "{}",
    "image_url": null
  },
  {
    "name": "Field Brewing",
    "brewery_type": "planning",
    "street": null,
    "address_2": null,
    "address_3": null,
    "city": "Westfield",
    "state_province": "Indiana",
    "postal_code": "46074-9494",
    "country": "United States",
    "longitude": null,
    "latitude": null,
    "phone": "3174300253",
    "website_url": "http://www.fieldbrewing.com",
    "state": "IN",
    "region": null,
    "amenities": "[]",
    "description": null,
    "hours": "{}",
    "image_url": null
  },
  {
    "name": "Figure Eight Brewing Co",
    "brewery_type": "brewpub",
    "street": "150 Washington St",
    "address_2": null,
    "address_3": null,
    "city": "Valparaiso",
    "state_province": "Indiana",
    "postal_code": "46383-5507",
    "country": "United States",
    "longitude": null,
    "latitude": null,
    "phone": "2194772000",
    "website_url": "http://www.figureeightbrewing.com",
    "state": "IN",
    "region": null,
    "amenities": "[]",
    "description": null,
    "hours": "{}",
    "image_url": null
  },
  {
    "name": "Flat 12 Bierwerks",
    "brewery_type": "micro",
    "street": "414 Dorman St",
    "address_2": null,
    "address_3": null,
    "city": "Indianapolis",
    "state_province": "Indiana",
    "postal_code": "46202-3648",
    "country": "United States",
    "longitude": -86.13847,
    "latitude": 39.77261486,
    "phone": "3174265851",
    "website_url": "http://www.flat12.me",
    "state": "IN",
    "region": null,
    "amenities": "[]",
    "description": null,
    "hours": "{}",
    "image_url": null
  },
  {
    "name": "Flix Brewhouse",
    "brewery_type": "brewpub",
    "street": "2206 E 116th St",
    "address_2": null,
    "address_3": null,
    "city": "Carmel",
    "state_province": "Indiana",
    "postal_code": "46032-3215",
    "country": "United States",
    "longitude": -86.0897644,
    "latitude": 39.9567195,
    "phone": "5122442739",
    "website_url": null,
    "state": "IN",
    "region": null,
    "amenities": "[]",
    "description": null,
    "hours": "{}",
    "image_url": null
  },
  {
    "name": "Floyd County Brewing Company",
    "brewery_type": "brewpub",
    "street": "129 W Main St",
    "address_2": null,
    "address_3": null,
    "city": "New Albany",
    "state_province": "Indiana",
    "postal_code": "47150-5958",
    "country": "United States",
    "longitude": -85.82429754,
    "latitude": 38.28289885,
    "phone": "4705882337",
    "website_url": "http://www.floydcountybrewing.com",
    "state": "IN",
    "region": null,
    "amenities": "[]",
    "description": null,
    "hours": "{}",
    "image_url": null
  },
  {
    "name": "Fountain Square Brewing Co",
    "brewery_type": "micro",
    "street": "1301 Barth Ave",
    "address_2": null,
    "address_3": null,
    "city": "Indianapolis",
    "state_province": "Indiana",
    "postal_code": "46203-1872",
    "country": "United States",
    "longitude": -86.1404227,
    "latitude": 39.7496885,
    "phone": "3174931410",
    "website_url": "http://www.fountainsquarebrewing.com",
    "state": "IN",
    "region": null,
    "amenities": "[]",
    "description": null,
    "hours": "{}",
    "image_url": null
  },
  {
    "name": "Four Day Ray Brewing",
    "brewery_type": "brewpub",
    "street": "11671 Lantern Rd",
    "address_2": null,
    "address_3": null,
    "city": "Fishers",
    "state_province": "Indiana",
    "postal_code": "46038-2952",
    "country": "United States",
    "longitude": -86.013396,
    "latitude": 39.956908,
    "phone": "3173430200",
    "website_url": "http://www.fourdayray.com",
    "state": "IN",
    "region": null,
    "amenities": "[]",
    "description": null,
    "hours": "{}",
    "image_url": null
  },
  {
    "name": "Four Fathers Brewing",
    "brewery_type": "micro",
    "street": "1555 W Lincolnway Ste 105",
    "address_2": null,
    "address_3": null,
    "city": "Valparaiso",
    "state_province": "Indiana",
    "postal_code": "46385-3801",
    "country": "United States",
    "longitude": -87.07906572,
    "latitude": 41.47328343,
    "phone": "2194649712",
    "website_url": "http://www.fourfathersbrewing.com",
    "state": "IN",
    "region": null,
    "amenities": "[]",
    "description": null,
    "hours": "{}",
    "image_url": null
  },
  {
    "name": "Function Brewing Co",
    "brewery_type": "brewpub",
    "street": "108 E 6th St",
    "address_2": null,
    "address_3": null,
    "city": "Bloomington",
    "state_province": "Indiana",
    "postal_code": "47408-3311",
    "country": "United States",
    "longitude": -86.53337072,
    "latitude": 39.16746781,
    "phone": "8126761000",
    "website_url": "http://www.functionbrewing.com",
    "state": "IN",
    "region": null,
    "amenities": "[]",
    "description": null,
    "hours": "{}",
    "image_url": null
  },
  {
    "name": "George Ringler & Company",
    "brewery_type": "planning",
    "street": null,
    "address_2": null,
    "address_3": null,
    "city": "Danville",
    "state_province": "Indiana",
    "postal_code": "46122-1623",
    "country": "United States",
    "longitude": null,
    "latitude": null,
    "phone": "3176268353",
    "website_url": null,
    "state": "IN",
    "region": null,
    "amenities": "[]",
    "description": null,
    "hours": "{}",
    "image_url": null
  },
  {
    "name": "GnomeTown Brewing Co",
    "brewery_type": "brewpub",
    "street": "203 E Berry St Ste 104",
    "address_2": null,
    "address_3": null,
    "city": "Fort Wayne",
    "state_province": "Indiana",
    "postal_code": "46802",
    "country": "United States",
    "longitude": null,
    "latitude": null,
    "phone": "2604220070",
    "website_url": "http://www.gnometownbrewing.com",
    "state": "IN",
    "region": null,
    "amenities": "[]",
    "description": null,
    "hours": "{}",
    "image_url": null
  },
  {
    "name": "Goshen Brewing Company",
    "brewery_type": "brewpub",
    "street": "315 W Washington St",
    "address_2": null,
    "address_3": null,
    "city": "Goshen",
    "state_province": "Indiana",
    "postal_code": "46526-3732",
    "country": "United States",
    "longitude": -85.8386783,
    "latitude": 41.585178,
    "phone": "5749715324",
    "website_url": "http://www.goshenbrewing.com",
    "state": "IN",
    "region": null,
    "amenities": "[]",
    "description": null,
    "hours": "{}",
    "image_url": null
  },
  {
    "name": "Grand Junction Brewing Co",
    "brewery_type": "brewpub",
    "street": "110 S Union St",
    "address_2": null,
    "address_3": null,
    "city": "Westfield",
    "state_province": "Indiana",
    "postal_code": "46074-9458",
    "country": "United States",
    "longitude": -86.1275556,
    "latitude": 40.0424222,
    "phone": "3178045168",
    "website_url": "http://www.grandjunctionbrewing.com",
    "state": "IN",
    "region": null,
    "amenities": "[]",
    "description": null,
    "hours": "{}",
    "image_url": null
  },
  {
    "name": "Granite City Food & Brewery",
    "brewery_type": "brewpub",
    "street": "150 W 96th St",
    "address_2": null,
    "address_3": null,
    "city": "Indianapolis",
    "state_province": "Indiana",
    "postal_code": "46260-4802",
    "country": "United States",
    "longitude": null,
    "latitude": null,
    "phone": null,
    "website_url": null,
    "state": "IN",
    "region": null,
    "amenities": "[]",
    "description": null,
    "hours": "{}",
    "image_url": null
  },
  {
    "name": "Granite City Food & Brewery (#24)",
    "brewery_type": "brewpub",
    "street": "3809 Coldwater Rd",
    "address_2": null,
    "address_3": null,
    "city": "Fort Wayne",
    "state_province": "Indiana",
    "postal_code": "46805-1101",
    "country": "United States",
    "longitude": -85.13581857,
    "latitude": 41.1113216,
    "phone": "2604713030",
    "website_url": "http://www.gcfb.net",
    "state": "IN",
    "region": null,
    "amenities": "[]",
    "description": null,
    "hours": "{}",
    "image_url": null
  },
  {
    "name": "Granite City Food & Brewery (#26)",
    "brewery_type": "brewpub",
    "street": "6501 Grape Rd Ste 1000",
    "address_2": null,
    "address_3": null,
    "city": "Mishawaka",
    "state_province": "Indiana",
    "postal_code": "46545-1010",
    "country": "United States",
    "longitude": -86.1923429,
    "latitude": 41.7177604,
    "phone": "5742430900",
    "website_url": "http://www.gcfb.net",
    "state": "IN",
    "region": null,
    "amenities": "[]",
    "description": null,
    "hours": "{}",
    "image_url": null
  },
  {
    "name": "Granite City Food & Brewery (#27)",
    "brewery_type": "brewpub",
    "street": "150 W 96th St",
    "address_2": null,
    "address_3": null,
    "city": "Indianapolis",
    "state_province": "Indiana",
    "postal_code": "46260-4802",
    "country": "United States",
    "longitude": null,
    "latitude": null,
    "phone": "3172187185",
    "website_url": "http://www.gcfb.net",
    "state": "IN",
    "region": null,
    "amenities": "[]",
    "description": null,
    "hours": "{}",
    "image_url": null
  },
  {
    "name": "Great Crescent Brewery",
    "brewery_type": "micro",
    "street": "315 Importing St",
    "address_2": null,
    "address_3": null,
    "city": "Aurora",
    "state_province": "Indiana",
    "postal_code": "47001-1415",
    "country": "United States",
    "longitude": -84.90051257,
    "latitude": 39.05760229,
    "phone": "8126559079",
    "website_url": "http://www.gcbeer.com",
    "state": "IN",
    "region": null,
    "amenities": "[]",
    "description": null,
    "hours": "{}",
    "image_url": null
  },
  {
    "name": "Guggman Haus Brewing Co.",
    "brewery_type": "planning",
    "street": null,
    "address_2": null,
    "address_3": null,
    "city": "Indianapolis",
    "state_province": "Indiana",
    "postal_code": "46202-2158",
    "country": "United States",
    "longitude": null,
    "latitude": null,
    "phone": "8122302554",
    "website_url": "http://www.guggmanhausbrewing.com",
    "state": "IN",
    "region": null,
    "amenities": "[]",
    "description": null,
    "hours": "{}",
    "image_url": null
  },
  {
    "name": "Half Moon Restaurant & Brewery",
    "brewery_type": "brewpub",
    "street": "4051 S Lafountain St",
    "address_2": null,
    "address_3": null,
    "city": "Kokomo",
    "state_province": "Indiana",
    "postal_code": "46902-6913",
    "country": "United States",
    "longitude": -86.1281745,
    "latitude": 40.4362867,
    "phone": "7654552739",
    "website_url": null,
    "state": "IN",
    "region": null,
    "amenities": "[]",
    "description": null,
    "hours": "{}",
    "image_url": null
  },
  {
    "name": "Heavenly Goat Brewing Company",
    "brewery_type": "brewpub",
    "street": "7321 Heritage Square Dr Ste 190",
    "address_2": null,
    "address_3": null,
    "city": "Granger",
    "state_province": "Indiana",
    "postal_code": "46530-5660",
    "country": "United States",
    "longitude": null,
    "latitude": null,
    "phone": "5742178428",
    "website_url": "http://www.heavenlygoatbrew.com",
    "state": "IN",
    "region": null,
    "amenities": "[]",
    "description": null,
    "hours": "{}",
    "image_url": null
  },
  {
    "name": "Herrmann Brewthers, LLC",
    "brewery_type": "planning",
    "street": null,
    "address_2": null,
    "address_3": null,
    "city": "Fishers",
    "state_province": "Indiana",
    "postal_code": "46038-2313",
    "country": "United States",
    "longitude": null,
    "latitude": null,
    "phone": "3179641390",
    "website_url": null,
    "state": "IN",
    "region": null,
    "amenities": "[]",
    "description": null,
    "hours": "{}",
    "image_url": null
  },
  {
    "name": "Hop Quest Brewing Company",
    "brewery_type": "planning",
    "street": null,
    "address_2": null,
    "address_3": null,
    "city": "Wheatfield",
    "state_province": "Indiana",
    "postal_code": "46392",
    "country": "United States",
    "longitude": null,
    "latitude": null,
    "phone": "2198636393",
    "website_url": null,
    "state": "IN",
    "region": null,
    "amenities": "[]",
    "description": null,
    "hours": "{}",
    "image_url": null
  },
  {
    "name": "Hop River Brewing Company",
    "brewery_type": "micro",
    "street": "1515 N Harrison St",
    "address_2": null,
    "address_3": null,
    "city": "Fort Wayne",
    "state_province": "Indiana",
    "postal_code": "46808-2729",
    "country": "United States",
    "longitude": -85.1434574,
    "latitude": 41.0882767,
    "phone": null,
    "website_url": "http://www.hopriverbrewing.com",
    "state": "IN",
    "region": null,
    "amenities": "[]",
    "description": null,
    "hours": "{}",
    "image_url": null
  },
  {
    "name": "Hunter's Brewing",
    "brewery_type": "brewpub",
    "street": "1535 S Calumet Rd",
    "address_2": null,
    "address_3": null,
    "city": "Chesterton",
    "state_province": "Indiana",
    "postal_code": "46304-3301",
    "country": "United States",
    "longitude": -87.0475184,
    "latitude": 41.5971593,
    "phone": "2197286729",
    "website_url": null,
    "state": "IN",
    "region": null,
    "amenities": "[]",
    "description": null,
    "hours": "{}",
    "image_url": null
  },
  {
    "name": "Iechyd Da Brewing",
    "brewery_type": "brewpub",
    "street": "317 N Main St",
    "address_2": null,
    "address_3": null,
    "city": "Elkhart",
    "state_province": "Indiana",
    "postal_code": "46516-3034",
    "country": "United States",
    "longitude": -85.97531332,
    "latitude": 41.69004065,
    "phone": "5742930506",
    "website_url": "http://www.iechyddabrewingcompany.com",
    "state": "IN",
    "region": null,
    "amenities": "[]",
    "description": null,
    "hours": "{}",
    "image_url": null
  },
  {
    "name": "Indiana City Brewing",
    "brewery_type": "micro",
    "street": "24 Shelby Street",
    "address_2": null,
    "address_3": null,
    "city": "Indianapolis",
    "state_province": "Indiana",
    "postal_code": "46202-3941",
    "country": "United States",
    "longitude": -86.141258,
    "latitude": 39.7661102,
    "phone": "3176431103",
    "website_url": "http://indianacitybeer.com",
    "state": "IN",
    "region": null,
    "amenities": "[]",
    "description": null,
    "hours": "{}",
    "image_url": null
  },
  {
    "name": "Ironwood Brewing Co LLC",
    "brewery_type": "micro",
    "street": "6 Roosevelt Rd",
    "address_2": null,
    "address_3": null,
    "city": "Valparaiso",
    "state_province": "Indiana",
    "postal_code": "46383-5136",
    "country": "United States",
    "longitude": -87.046457,
    "latitude": 41.46840633,
    "phone": "2194054644",
    "website_url": "http://www.ironwoodbrewing.beer",
    "state": "IN",
    "region": null,
    "amenities": "[]",
    "description": null,
    "hours": "{}",
    "image_url": null
  },
  {
    "name": "Junk Ditch Brewing Company",
    "brewery_type": "micro",
    "street": "1825 W Main St",
    "address_2": null,
    "address_3": null,
    "city": "Fort Wayne",
    "state_province": "Indiana",
    "postal_code": "46808-3715",
    "country": "United States",
    "longitude": -85.1669014,
    "latitude": 41.0779727,
    "phone": "2604600460",
    "website_url": "http://junkditchbrewingco.com",
    "state": "IN",
    "region": null,
    "amenities": "[]",
    "description": null,
    "hours": "{}",
    "image_url": null
  },
  {
    "name": "Lafayette Brewing Co",
    "brewery_type": "brewpub",
    "street": "622 Main St",
    "address_2": null,
    "address_3": null,
    "city": "Lafayette",
    "state_province": "Indiana",
    "postal_code": "47901-1451",
    "country": "United States",
    "longitude": -86.88994924,
    "latitude": 40.41921732,
    "phone": "7657422591",
    "website_url": "http://www.lafayettebrewingco.com",
    "state": "IN",
    "region": null,
    "amenities": "[]",
    "description": null,
    "hours": "{}",
    "image_url": null
  },
  {
    "name": "LaOtto Brewing LLC",
    "brewery_type": "brewpub",
    "street": "202 S Main St",
    "address_2": null,
    "address_3": null,
    "city": "Laotto",
    "state_province": "Indiana",
    "postal_code": "46763-4800",
    "country": "United States",
    "longitude": null,
    "latitude": null,
    "phone": "2608973360",
    "website_url": null,
    "state": "IN",
    "region": null,
    "amenities": "[]",
    "description": null,
    "hours": "{}",
    "image_url": null
  },
  {
    "name": "Lil' Charlie's Restaurant & Brewery",
    "brewery_type": "contract",
    "street": "504 E Pearl St",
    "address_2": null,
    "address_3": null,
    "city": "Batesville",
    "state_province": "Indiana",
    "postal_code": "47006-1585",
    "country": "United States",
    "longitude": -85.21614518,
    "latitude": 39.29564197,
    "phone": "8129346392",
    "website_url": "http://www.lilcharlies.com",
    "state": "IN",
    "region": null,
    "amenities": "[]",
    "description": null,
    "hours": "{}",
    "image_url": null
  },
  {
    "name": "Liter House",
    "brewery_type": "planning",
    "street": null,
    "address_2": null,
    "address_3": null,
    "city": "Indianapolis",
    "state_province": "Indiana",
    "postal_code": "46220",
    "country": "United States",
    "longitude": null,
    "latitude": null,
    "phone": "3176940580",
    "website_url": null,
    "state": "IN",
    "region": null,
    "amenities": "[]",
    "description": null,
    "hours": "{}",
    "image_url": null
  },
  {
    "name": "Mad Anthony Brewing Co",
    "brewery_type": "micro",
    "street": "2002 Broadway",
    "address_2": null,
    "address_3": null,
    "city": "Fort Wayne",
    "state_province": "Indiana",
    "postal_code": "46802-3710",
    "country": "United States",
    "longitude": null,
    "latitude": null,
    "phone": "2604262537",
    "website_url": "http://www.madbrew.com",
    "state": "IN",
    "region": null,
    "amenities": "[]",
    "description": null,
    "hours": "{}",
    "image_url": null
  },
  {
    "name": "Maidens Brewery",
    "brewery_type": "brewpub",
    "street": "209 North Wabash Avenue of Flags",
    "address_2": null,
    "address_3": null,
    "city": "Evansville",
    "state_province": "Indiana",
    "postal_code": "47712",
    "country": "United States",
    "longitude": null,
    "latitude": null,
    "phone": "8124312836",
    "website_url": "http://www.maidensbrewery.com",
    "state": "IN",
    "region": null,
    "amenities": "[]",
    "description": null,
    "hours": "{}",
    "image_url": null
  },
  {
    "name": "Main Street Brewing Inc/Turonis Pizza",
    "brewery_type": "brewpub",
    "street": "408 N Main St",
    "address_2": null,
    "address_3": null,
    "city": "Evansville",
    "state_province": "Indiana",
    "postal_code": "47711-5418",
    "country": "United States",
    "longitude": -87.56399527,
    "latitude": 37.98122094,
    "phone": "8124249871",
    "website_url": null,
    "state": "IN",
    "region": null,
    "amenities": "[]",
    "description": null,
    "hours": "{}",
    "image_url": null
  },
  {
    "name": "MashCraft Brewing",
    "brewery_type": "micro",
    "street": "1140 N State Road 135 Ste M",
    "address_2": null,
    "address_3": null,
    "city": "Greenwood",
    "state_province": "Indiana",
    "postal_code": "46142-1016",
    "country": "United States",
    "longitude": null,
    "latitude": null,
    "phone": "3172154578",
    "website_url": "http://www.mashcraft.com",
    "state": "IN",
    "region": null,
    "amenities": "[]",
    "description": null,
    "hours": "{}",
    "image_url": null
  },
  {
    "name": "Metazoa Brewing Co.",
    "brewery_type": "micro",
    "street": "140 S College Ave",
    "address_2": null,
    "address_3": null,
    "city": "Indianapolis",
    "state_province": "Indiana",
    "postal_code": "46202-4004",
    "country": "United States",
    "longitude": -86.14585025,
    "latitude": 39.76455049,
    "phone": "3175082274",
    "website_url": "http://www.metazoa.beer",
    "state": "IN",
    "region": null,
    "amenities": "[]",
    "description": null,
    "hours": "{}",
    "image_url": null
  },
  {
    "name": "Misconduct Brewing",
    "brewery_type": "planning",
    "street": null,
    "address_2": null,
    "address_3": null,
    "city": "Carmel",
    "state_province": "Indiana",
    "postal_code": "46033-9414",
    "country": "United States",
    "longitude": null,
    "latitude": null,
    "phone": null,
    "website_url": null,
    "state": "IN",
    "region": null,
    "amenities": "[]",
    "description": null,
    "hours": "{}",
    "image_url": null
  },
  {
    "name": "Moontown Brewing",
    "brewery_type": "brewpub",
    "street": "345 S Bowers St",
    "address_2": null,
    "address_3": null,
    "city": "Whitestown",
    "state_province": "Indiana",
    "postal_code": "46075",
    "country": "United States",
    "longitude": -86.346903,
    "latitude": 39.99409929,
    "phone": "5742503114",
    "website_url": "http://www.moontownbeer.com",
    "state": "IN",
    "region": null,
    "amenities": "[]",
    "description": null,
    "hours": "{}",
    "image_url": null
  },
  {
    "name": "Nailers Brewing Company",
    "brewery_type": "brewpub",
    "street": "6001 N US Highway 31",
    "address_2": null,
    "address_3": null,
    "city": "Whiteland",
    "state_province": "Indiana",
    "postal_code": "46184",
    "country": "United States",
    "longitude": null,
    "latitude": null,
    "phone": "3172813132",
    "website_url": null,
    "state": "IN",
    "region": null,
    "amenities": "[]",
    "description": null,
    "hours": "{}",
    "image_url": null
  },
  {
    "name": "New Albanian Bank Street Brewhouse",
    "brewery_type": "brewpub",
    "street": "415 Bank St",
    "address_2": null,
    "address_3": null,
    "city": "New Albany",
    "state_province": "Indiana",
    "postal_code": "47150-3407",
    "country": "United States",
    "longitude": -85.82220842,
    "latitude": 38.28656732,
    "phone": "8127259585",
    "website_url": "http://www.newalbanian.com",
    "state": "IN",
    "region": null,
    "amenities": "[]",
    "description": null,
    "hours": "{}",
    "image_url": null
  },
  {
    "name": "New Albanian Brewing Co",
    "brewery_type": "brewpub",
    "street": "3312 Plaza Dr",
    "address_2": null,
    "address_3": null,
    "city": "New Albany",
    "state_province": "Indiana",
    "postal_code": "47150-2478",
    "country": "United States",
    "longitude": null,
    "latitude": null,
    "phone": "8129442577",
    "website_url": "http://www.newalbanian.com",
    "state": "IN",
    "region": null,
    "amenities": "[]",
    "description": null,
    "hours": "{}",
    "image_url": null
  },
  {
    "name": "New Boswell Brewing Co",
    "brewery_type": "micro",
    "street": "410 N 10th St",
    "address_2": null,
    "address_3": null,
    "city": "Richmond",
    "state_province": "Indiana",
    "postal_code": "47374",
    "country": "United States",
    "longitude": -84.88916811,
    "latitude": 39.83306544,
    "phone": "7655467856",
    "website_url": "http://www.newboswell.com",
    "state": "IN",
    "region": null,
    "amenities": "[]",
    "description": null,
    "hours": "{}",
    "image_url": null
  },
  {
    "name": "New Corner Brewing Company",
    "brewery_type": "micro",
    "street": "1900 W Mt Pleasant Blvd Ste G",
    "address_2": null,
    "address_3": null,
    "city": "Muncie",
    "state_province": "Indiana",
    "postal_code": "47302-9566",
    "country": "United States",
    "longitude": null,
    "latitude": null,
    "phone": "7657304376",
    "website_url": "http://www.newcornerbrewing.com",
    "state": "IN",
    "region": null,
    "amenities": "[]",
    "description": null,
    "hours": "{}",
    "image_url": null
  },
  {
    "name": "New Oberpfalz Brewing",
    "brewery_type": "brewpub",
    "street": "121 E Main St",
    "address_2": null,
    "address_3": null,
    "city": "Griffith",
    "state_province": "Indiana",
    "postal_code": "46319-2243",
    "country": "United States",
    "longitude": -87.42727571,
    "latitude": 41.52270212,
    "phone": "3127381308",
    "website_url": "http://www.newoberpfalz.com",
    "state": "IN",
    "region": null,
    "amenities": "[]",
    "description": null,
    "hours": "{}",
    "image_url": null
  },
  {
    "name": "Noble Order Brewing Company",
    "brewery_type": "brewpub",
    "street": "3407 National Rd W",
    "address_2": null,
    "address_3": null,
    "city": "Richmond",
    "state_province": "Indiana",
    "postal_code": "47374-4416",
    "country": "United States",
    "longitude": -84.94882319,
    "latitude": 39.82198694,
    "phone": "7659659463",
    "website_url": "http://www.nobleorderbrewing.com",
    "state": "IN",
    "region": null,
    "amenities": "[]",
    "description": null,
    "hours": "{}",
    "image_url": null
  },
  {
    "name": "Norris English Pub",
    "brewery_type": "brewpub",
    "street": "202 E Seminary St",
    "address_2": null,
    "address_3": null,
    "city": "Liberty",
    "state_province": "Indiana",
    "postal_code": "47353-1206",
    "country": "United States",
    "longitude": -84.92508133,
    "latitude": 39.6344325,
    "phone": "7652232337",
    "website_url": "http://www.norrisenglishpub.com",
    "state": "IN",
    "region": null,
    "amenities": "[]",
    "description": null,
    "hours": "{}",
    "image_url": null
  },
  {
    "name": "Oaken Barrel Brewing Co",
    "brewery_type": "brewpub",
    "street": "50 Airport Pkwy Ste L",
    "address_2": null,
    "address_3": null,
    "city": "Greenwood",
    "state_province": "Indiana",
    "postal_code": "46143-1438",
    "country": "United States",
    "longitude": null,
    "latitude": null,
    "phone": "3178872287",
    "website_url": "http://www.oakenbarrel.com",
    "state": "IN",
    "region": null,
    "amenities": "[]",
    "description": null,
    "hours": "{}",
    "image_url": null
  },
  {
    "name": "Off Square Brewing",
    "brewery_type": "brewpub",
    "street": "11000 Delaware Pkwy",
    "address_2": null,
    "address_3": null,
    "city": "Crown Point",
    "state_province": "Indiana",
    "postal_code": "46307-7895",
    "country": "United States",
    "longitude": -87.329728,
    "latitude": 41.417636,
    "phone": "2193108898",
    "website_url": "http://www.offsquarebrewing.com",
    "state": "IN",
    "region": null,
    "amenities": "[]",
    "description": null,
    "hours": "{}",
    "image_url": null
  },
  {
    "name": "Opocofi Brewing Company",
    "brewery_type": "planning",
    "street": null,
    "address_2": null,
    "address_3": null,
    "city": "Franklin",
    "state_province": "Indiana",
    "postal_code": "46131-8901",
    "country": "United States",
    "longitude": null,
    "latitude": null,
    "phone": null,
    "website_url": null,
    "state": "IN",
    "region": null,
    "amenities": "[]",
    "description": null,
    "hours": "{}",
    "image_url": null
  },
  {
    "name": "Pax Verum Brewing",
    "brewery_type": "micro",
    "street": "908 N Main St",
    "address_2": null,
    "address_3": null,
    "city": "Lapel",
    "state_province": "Indiana",
    "postal_code": "46051-",
    "country": "United States",
    "longitude": -85.84802957,
    "latitude": 40.0686988,
    "phone": "3172858819",
    "website_url": "http://www.paxverum.com",
    "state": "IN",
    "region": null,
    "amenities": "[]",
    "description": null,
    "hours": "{}",
    "image_url": null
  },
  {
    "name": "Peoples Brewing Co",
    "brewery_type": "micro",
    "street": "2006 N 9th Street Rd",
    "address_2": null,
    "address_3": null,
    "city": "Lafayette",
    "state_province": "Indiana",
    "postal_code": "47904-1036",
    "country": "United States",
    "longitude": -86.885995,
    "latitude": 40.43700688,
    "phone": "7657924677",
    "website_url": "http://www.peoplesbrew.com",
    "state": "IN",
    "region": null,
    "amenities": "[]",
    "description": null,
    "hours": "{}",
    "image_url": null
  },
  {
    "name": "Planetary Brewing Company",
    "brewery_type": "micro",
    "street": "500 Polk St Ste 22",
    "address_2": null,
    "address_3": null,
    "city": "Greenwood",
    "state_province": "Indiana",
    "postal_code": "46143-1638",
    "country": "United States",
    "longitude": null,
    "latitude": null,
    "phone": "3172154941",
    "website_url": "http://www.planetarybrewing.com",
    "state": "IN",
    "region": null,
    "amenities": "[]",
    "description": null,
    "hours": "{}",
    "image_url": null
  },
  {
    "name": "Point Blank Brewing Company",
    "brewery_type": "brewpub",
    "street": "105 E Beaver St",
    "address_2": null,
    "address_3": null,
    "city": "Corydon",
    "state_province": "Indiana",
    "postal_code": "47112-1146",
    "country": "United States",
    "longitude": -86.12616408,
    "latitude": 38.21111448,
    "phone": "8122255141",
    "website_url": "http://www.pointblankbrewing.com",
    "state": "IN",
    "region": null,
    "amenities": "[]",
    "description": null,
    "hours": "{}",
    "image_url": null
  },
  {
    "name": "Pokro Brewing Company, The",
    "brewery_type": "micro",
    "street": "311 N Broad St",
    "address_2": null,
    "address_3": null,
    "city": "Griffith",
    "state_province": "Indiana",
    "postal_code": "46319-2222",
    "country": "United States",
    "longitude": -87.42755733,
    "latitude": 41.5266943,
    "phone": "2199247950",
    "website_url": "http://www.pokrobrewing.com",
    "state": "IN",
    "region": null,
    "amenities": "[]",
    "description": null,
    "hours": "{}",
    "image_url": null
  },
  {
    "name": "Power House Brewing Co's Columbus Bar",
    "brewery_type": "brewpub",
    "street": "2735 N State Road 9",
    "address_2": null,
    "address_3": null,
    "city": "Columbus",
    "state_province": "Indiana",
    "postal_code": "47203-9648",
    "country": "United States",
    "longitude": null,
    "latitude": null,
    "phone": "8123758800",
    "website_url": "http://www.powerhousebrewingco.com",
    "state": "IN",
    "region": null,
    "amenities": "[]",
    "description": null,
    "hours": "{}",
    "image_url": null
  },
  {
    "name": "Quaff On Brewing",
    "brewery_type": "micro",
    "street": "1934 State Road 135 N",
    "address_2": null,
    "address_3": null,
    "city": "Nashville",
    "state_province": "Indiana",
    "postal_code": "47448-8418",
    "country": "United States",
    "longitude": null,
    "latitude": null,
    "phone": "8129886006",
    "website_url": "http://www.quaffon.com",
    "state": "IN",
    "region": null,
    "amenities": "[]",
    "description": null,
    "hours": "{}",
    "image_url": null
  },
  {
    "name": "Raintree Brewing Company",
    "brewery_type": "micro",
    "street": "500 Church Street",
    "address_2": null,
    "address_3": null,
    "city": "New Harmony",
    "state_province": "Indiana",
    "postal_code": "47631",
    "country": "United States",
    "longitude": -87.9348109,
    "latitude": 38.1299262,
    "phone": null,
    "website_url": "http://www.raintreebrewing.com",
    "state": "IN",
    "region": null,
    "amenities": "[]",
    "description": null,
    "hours": "{}",
    "image_url": null
  },
  {
    "name": "RAM Restaurant and Brewery - Indianapolis",
    "brewery_type": "brewpub",
    "street": "140 S Illinois St",
    "address_2": null,
    "address_3": null,
    "city": "Indianapolis",
    "state_province": "Indiana",
    "postal_code": "46204",
    "country": "United States",
    "longitude": -86.16050947,
    "latitude": 39.76475755,
    "phone": "3179559900",
    "website_url": "http://www.theram.com",
    "state": "IN",
    "region": null,
    "amenities": "[]",
    "description": null,
    "hours": "{}",
    "image_url": null
  },
  {
    "name": "Rebelle Brewing",
    "brewery_type": "planning",
    "street": null,
    "address_2": null,
    "address_3": null,
    "city": "Noblesville",
    "state_province": "Indiana",
    "postal_code": "46060",
    "country": "United States",
    "longitude": null,
    "latitude": null,
    "phone": null,
    "website_url": null,
    "state": "IN",
    "region": null,
    "amenities": "[]",
    "description": null,
    "hours": "{}",
    "image_url": null
  },
  {
    "name": "Redemption Alewerks",
    "brewery_type": "brewpub",
    "street": "7035 E 96th St Ste K",
    "address_2": null,
    "address_3": null,
    "city": "Indianapolis",
    "state_province": "Indiana",
    "postal_code": "46250-3303",
    "country": "United States",
    "longitude": null,
    "latitude": null,
    "phone": "3173483330",
    "website_url": "http://www.redemptionalewerks.com",
    "state": "IN",
    "region": null,
    "amenities": "[]",
    "description": null,
    "hours": "{}",
    "image_url": null
  },
  {
    "name": "Rock Bottom Brewery - Indianapolis",
    "brewery_type": "brewpub",
    "street": "10 W Washington St",
    "address_2": null,
    "address_3": null,
    "city": "Indianapolis",
    "state_province": "Indiana",
    "postal_code": "46204-3402",
    "country": "United States",
    "longitude": -86.1584705,
    "latitude": 39.76717025,
    "phone": "3176818180",
    "website_url": "http://www.rockbottom.com",
    "state": "IN",
    "region": null,
    "amenities": "[]",
    "description": null,
    "hours": "{}",
    "image_url": null
  },
  {
    "name": "Round Town Brewery",
    "brewery_type": "micro",
    "street": "950 S White River Pky West Dr Ste 100",
    "address_2": null,
    "address_3": null,
    "city": "Indianapolis",
    "state_province": "Indiana",
    "postal_code": "46221-1373",
    "country": "United States",
    "longitude": null,
    "latitude": null,
    "phone": "3174931375",
    "website_url": "http://www.roundtownbrewery.com",
    "state": "IN",
    "region": null,
    "amenities": "[]",
    "description": null,
    "hours": "{}",
    "image_url": null
  },
  {
    "name": "Salt Creek Brewery",
    "brewery_type": "brewpub",
    "street": "466 Old State Road 37 N",
    "address_2": null,
    "address_3": null,
    "city": "Bedford",
    "state_province": "Indiana",
    "postal_code": "47421-8068",
    "country": "United States",
    "longitude": null,
    "latitude": null,
    "phone": "8122778277",
    "website_url": "http://www.saltcreeekbrewery.beer",
    "state": "IN",
    "region": null,
    "amenities": "[]",
    "description": null,
    "hours": "{}",
    "image_url": null
  },
  {
    "name": "Scarlet Lane Brewing Company LLC",
    "brewery_type": "micro",
    "street": "7724 Depot St",
    "address_2": null,
    "address_3": null,
    "city": "McCordsville",
    "state_province": "Indiana",
    "postal_code": "46055-6173",
    "country": "United States",
    "longitude": -85.92438159,
    "latitude": 39.89477286,
    "phone": null,
    "website_url": "http://www.scarletlanebrew.com",
    "state": "IN",
    "region": null,
    "amenities": "[]",
    "description": null,
    "hours": "{}",
    "image_url": null
  },
  {
    "name": "Schnitz Brewery",
    "brewery_type": "brewpub",
    "street": "2031 Newton St",
    "address_2": null,
    "address_3": null,
    "city": "Jasper",
    "state_province": "Indiana",
    "postal_code": "47546-1600",
    "country": "United States",
    "longitude": -86.937703,
    "latitude": 38.405985,
    "phone": "8128482739",
    "website_url": "http://www.schnitzbrewery.com",
    "state": "IN",
    "region": null,
    "amenities": "[]",
    "description": null,
    "hours": "{}",
    "image_url": null
  },
  {
    "name": "Shoreline Brewery",
    "brewery_type": "brewpub",
    "street": "208 Wabash St",
    "address_2": null,
    "address_3": null,
    "city": "Michigan City",
    "state_province": "Indiana",
    "postal_code": "46360-3244",
    "country": "United States",
    "longitude": -86.90621968,
    "latitude": 41.71931311,
    "phone": "2198794677",
    "website_url": "http://www.shorelinebrewery.com",
    "state": "IN",
    "region": null,
    "amenities": "[]",
    "description": null,
    "hours": "{}",
    "image_url": null
  },
  {
    "name": "South Bend Brew Werks",
    "brewery_type": "brewpub",
    "street": "216 S Michigan St",
    "address_2": null,
    "address_3": null,
    "city": "South Bend",
    "state_province": "Indiana",
    "postal_code": "46601-2002",
    "country": "United States",
    "longitude": -86.25285572,
    "latitude": 41.62611855,
    "phone": "5743340356",
    "website_url": "http://www.southbendbrewwerks.com",
    "state": "IN",
    "region": null,
    "amenities": "[]",
    "description": null,
    "hours": "{}",
    "image_url": null
  },
  {
    "name": "St John Malt Brothers Brewing",
    "brewery_type": "brewpub",
    "street": "9607 Wicker Ave",
    "address_2": null,
    "address_3": null,
    "city": "Saint John",
    "state_province": "Indiana",
    "postal_code": "46373-9487",
    "country": "United States",
    "longitude": -87.46998163,
    "latitude": 41.44507008,
    "phone": "2196274294",
    "website_url": "http://www.sjmaltbros.com",
    "state": "IN",
    "region": null,
    "amenities": "[]",
    "description": null,
    "hours": "{}",
    "image_url": null
  },
  {
    "name": "St. Benedict's Brew Works",
    "brewery_type": "micro",
    "street": "860 E 10th St",
    "address_2": null,
    "address_3": null,
    "city": "Ferdinand",
    "state_province": "Indiana",
    "postal_code": "47532-9240",
    "country": "United States",
    "longitude": -86.85419491,
    "latitude": 38.2242289,
    "phone": "8129982337",
    "website_url": "http://www.saintbenedictsbrewworks.com",
    "state": "IN",
    "region": null,
    "amenities": "[]",
    "description": null,
    "hours": "{}",
    "image_url": null
  },
  {
    "name": "St. Joseph Brewery & Public House",
    "brewery_type": "brewpub",
    "street": "540 N College Ave",
    "address_2": null,
    "address_3": null,
    "city": "Indianapolis",
    "state_province": "Indiana",
    "postal_code": "46202-3504",
    "country": "United States",
    "longitude": -86.1449174,
    "latitude": 39.8095687,
    "phone": "3176025670",
    "website_url": "http://www.saintjoseph.beer.com",
    "state": "IN",
    "region": null,
    "amenities": "[]",
    "description": null,
    "hours": "{}",
    "image_url": null
  },
  {
    "name": "Studebaker Brewing Company",
    "brewery_type": "planning",
    "street": null,
    "address_2": null,
    "address_3": null,
    "city": "South Bend",
    "state_province": "Indiana",
    "postal_code": "46601",
    "country": "United States",
    "longitude": null,
    "latitude": null,
    "phone": "5742349077",
    "website_url": "http://www.studebakerbrewingco.com",
    "state": "IN",
    "region": null,
    "amenities": "[]",
    "description": null,
    "hours": "{}",
    "image_url": null
  },
  {
    "name": "Summit City Brwerks",
    "brewery_type": "brewpub",
    "street": "1501 E Berry #106",
    "address_2": null,
    "address_3": null,
    "city": "Fort Wayne",
    "state_province": "Indiana",
    "postal_code": "46803",
    "country": "United States",
    "longitude": null,
    "latitude": null,
    "phone": "2604150782",
    "website_url": "http://www.summitcitybrewerks.com",
    "state": "IN",
    "region": null,
    "amenities": "[]",
    "description": null,
    "hours": "{}",
    "image_url": null
  },
  {
    "name": "Sun King Brewery",
    "brewery_type": "micro",
    "street": "7848 E 96th St",
    "address_2": null,
    "address_3": null,
    "city": "Fishers",
    "state_province": "Indiana",
    "postal_code": "46037-9629",
    "country": "United States",
    "longitude": -86.0242557,
    "latitude": 39.9282185,
    "phone": "3174361926",
    "website_url": null,
    "state": "IN",
    "region": null,
    "amenities": "[]",
    "description": null,
    "hours": "{}",
    "image_url": null
  },
  {
    "name": "Sun King Brewing Co",
    "brewery_type": "planning",
    "street": null,
    "address_2": null,
    "address_3": null,
    "city": "Fishers",
    "state_province": "Indiana",
    "postal_code": "46037",
    "country": "United States",
    "longitude": null,
    "latitude": null,
    "phone": null,
    "website_url": null,
    "state": "IN",
    "region": null,
    "amenities": "[]",
    "description": null,
    "hours": "{}",
    "image_url": null
  },
  {
    "name": "Sun King Brewing Co",
    "brewery_type": "regional",
    "street": "135 N College Ave",
    "address_2": null,
    "address_3": null,
    "city": "Indianapolis",
    "state_province": "Indiana",
    "postal_code": "46202-3801",
    "country": "United States",
    "longitude": -86.1449174,
    "latitude": 39.8095687,
    "phone": "3176023702",
    "website_url": null,
    "state": "IN",
    "region": null,
    "amenities": "[]",
    "description": null,
    "hours": "{}",
    "image_url": null
  },
  {
    "name": "Switchyard Brewing Company",
    "brewery_type": "micro",
    "street": "419 N Walnut St",
    "address_2": null,
    "address_3": null,
    "city": "Bloomington",
    "state_province": "Indiana",
    "postal_code": "47404-3842",
    "country": "United States",
    "longitude": -86.5343606,
    "latitude": 39.1865667,
    "phone": "8122878295",
    "website_url": "http://www.switchyardbrewing.com",
    "state": "IN",
    "region": null,
    "amenities": "[]",
    "description": null,
    "hours": "{}",
    "image_url": null
  },
  {
    "name": "Taxman Brewing Co",
    "brewery_type": "micro",
    "street": "13 S Baldwin St",
    "address_2": null,
    "address_3": null,
    "city": "Bargersville",
    "state_province": "Indiana",
    "postal_code": "46106-9089",
    "country": "United States",
    "longitude": -86.16716199,
    "latitude": 39.52148548,
    "phone": null,
    "website_url": "http://www.taxmanbrewing.com",
    "state": "IN",
    "region": null,
    "amenities": "[]",
    "description": null,
    "hours": "{}",
    "image_url": null
  },
  {
    "name": "Teays River Brewing",
    "brewery_type": "brewpub",
    "street": "3000 S 9th St Ste A",
    "address_2": null,
    "address_3": null,
    "city": "Lafayette",
    "state_province": "Indiana",
    "postal_code": "47909-6702",
    "country": "United States",
    "longitude": null,
    "latitude": null,
    "phone": "7657466614",
    "website_url": "http://www.teaysriverbrewing.com",
    "state": "IN",
    "region": null,
    "amenities": "[]",
    "description": null,
    "hours": "{}",
    "image_url": null
  },
  {
    "name": "Terre Haute Brewing Company",
    "brewery_type": "brewpub",
    "street": "401 S 9th St",
    "address_2": null,
    "address_3": null,
    "city": "Terre Haute",
    "state_province": "Indiana",
    "postal_code": "47807-4417",
    "country": "United States",
    "longitude": -87.404517,
    "latitude": 39.462286,
    "phone": "8128143071",
    "website_url": "http://www.terrehautebrewingcompany.com",
    "state": "IN",
    "region": null,
    "amenities": "[]",
    "description": null,
    "hours": "{}",
    "image_url": null
  },
  {
    "name": "The Guardian Brewing Company",
    "brewery_type": "micro",
    "street": "514 E Jackson Street",
    "address_2": null,
    "address_3": null,
    "city": "Muncie",
    "state_province": "Indiana",
    "postal_code": "47305",
    "country": "United States",
    "longitude": -85.38148786,
    "latitude": 40.19281286,
    "phone": "7652738918",
    "website_url": "http://www.theguardianbrewingco.com",
    "state": "IN",
    "region": null,
    "amenities": "[]",
    "description": null,
    "hours": "{}",
    "image_url": null
  },
  {
    "name": "The Koontz Lake Brewing Company",
    "brewery_type": "brewpub",
    "street": "7747 N State Road 23",
    "address_2": null,
    "address_3": null,
    "city": "Walkerton",
    "state_province": "Indiana",
    "postal_code": "46574-9360",
    "country": "United States",
    "longitude": null,
    "latitude": null,
    "phone": "5745862019",
    "website_url": null,
    "state": "IN",
    "region": null,
    "amenities": "[]",
    "description": null,
    "hours": "{}",
    "image_url": null
  },
  {
    "name": "The Red Yeti",
    "brewery_type": "brewpub",
    "street": "256 Spring St",
    "address_2": null,
    "address_3": null,
    "city": "Jeffersonville",
    "state_province": "Indiana",
    "postal_code": "47130-3340",
    "country": "United States",
    "longitude": -85.7401585,
    "latitude": 38.2718249,
    "phone": "8122885788",
    "website_url": "http://www.redyetijeff.com",
    "state": "IN",
    "region": null,
    "amenities": "[]",
    "description": null,
    "hours": "{}",
    "image_url": null
  },
  {
    "name": "The Tap Brewery",
    "brewery_type": "brewpub",
    "street": "204 W Kirkwood Ave",
    "address_2": null,
    "address_3": null,
    "city": "Bloomington",
    "state_province": "Indiana",
    "postal_code": "47404-5144",
    "country": "United States",
    "longitude": -86.5350444,
    "latitude": 39.16650797,
    "phone": "8122878579",
    "website_url": "http://www.thetapbeerbar.com",
    "state": "IN",
    "region": null,
    "amenities": "[]",
    "description": null,
    "hours": "{}",
    "image_url": null
  },
  {
    "name": "Thr3e Wise Men Brewing Co",
    "brewery_type": "brewpub",
    "street": "1021 Broad Ripple Ave",
    "address_2": null,
    "address_3": null,
    "city": "Indianapolis",
    "state_province": "Indiana",
    "postal_code": "46220-2034",
    "country": "United States",
    "longitude": null,
    "latitude": null,
    "phone": "3172555151",
    "website_url": null,
    "state": "IN",
    "region": null,
    "amenities": "[]",
    "description": null,
    "hours": "{}",
    "image_url": null
  },
  {
    "name": "Three Floyds Brewing Co",
    "brewery_type": "regional",
    "street": "9750 Indiana Pkwy",
    "address_2": null,
    "address_3": null,
    "city": "Munster",
    "state_province": "Indiana",
    "postal_code": "46321-4004",
    "country": "United States",
    "longitude": null,
    "latitude": null,
    "phone": "2199223565",
    "website_url": "http://www.3floyds.com",
    "state": "IN",
    "region": null,
    "amenities": "[]",
    "description": null,
    "hours": "{}",
    "image_url": null
  },
  {
    "name": "Three Pints Brewpub",
    "brewery_type": "brewpub",
    "street": "610 W Mitchell Ave",
    "address_2": null,
    "address_3": null,
    "city": "Martinsville",
    "state_province": "Indiana",
    "postal_code": "46151-2734",
    "country": "United States",
    "longitude": null,
    "latitude": null,
    "phone": "7653499888",
    "website_url": "http://www.threepints.com",
    "state": "IN",
    "region": null,
    "amenities": "[]",
    "description": null,
    "hours": "{}",
    "image_url": null
  },
  {
    "name": "Tin Man Brewing Company",
    "brewery_type": "micro",
    "street": "1430 W Franklin St",
    "address_2": null,
    "address_3": null,
    "city": "Evansville",
    "state_province": "Indiana",
    "postal_code": "47710-1030",
    "country": "United States",
    "longitude": -87.58452457,
    "latitude": 37.9802897,
    "phone": "8126183227",
    "website_url": "http://www.tinmanbrewing.com",
    "state": "IN",
    "region": null,
    "amenities": "[]",
    "description": null,
    "hours": "{}",
    "image_url": null
  },
  {
    "name": "Tin Man Brewing Kokomo",
    "brewery_type": "micro",
    "street": "500 N Buckeye St Ste A",
    "address_2": null,
    "address_3": null,
    "city": "Kokomo",
    "state_province": "Indiana",
    "postal_code": "46901-4544",
    "country": "United States",
    "longitude": null,
    "latitude": null,
    "phone": "5125176164",
    "website_url": null,
    "state": "IN",
    "region": null,
    "amenities": "[]",
    "description": null,
    "hours": "{}",
    "image_url": null
  },
  {
    "name": "Traders Brewing Company",
    "brewery_type": "micro",
    "street": "8587  ZIONSVILLE ROAD",
    "address_2": null,
    "address_3": null,
    "city": "INDIANAPOLIS",
    "state_province": "Indiana",
    "postal_code": "46268",
    "country": "United States",
    "longitude": null,
    "latitude": null,
    "phone": "3172807505",
    "website_url": "http://www.tradersbrewingcompany.com",
    "state": "IN",
    "region": null,
    "amenities": "[]",
    "description": null,
    "hours": "{}",
    "image_url": null
  },
  {
    "name": "Triton Brewing Company",
    "brewery_type": "micro",
    "street": "5764 Wheeler Rd",
    "address_2": null,
    "address_3": null,
    "city": "Indianapolis",
    "state_province": "Indiana",
    "postal_code": "46216-1038",
    "country": "United States",
    "longitude": null,
    "latitude": null,
    "phone": "3177352706",
    "website_url": "http://www.tritonbrewing.com",
    "state": "IN",
    "region": null,
    "amenities": "[]",
    "description": null,
    "hours": "{}",
    "image_url": null
  },
  {
    "name": "Trubble Brewing",
    "brewery_type": "micro",
    "street": "2725 Broadway",
    "address_2": null,
    "address_3": null,
    "city": "Fort Wayne",
    "state_province": "Indiana",
    "postal_code": "46807-1111",
    "country": "United States",
    "longitude": null,
    "latitude": null,
    "phone": "2602676082",
    "website_url": "http://www.trubblebrewing.com",
    "state": "IN",
    "region": null,
    "amenities": "[]",
    "description": null,
    "hours": "{}",
    "image_url": null
  },
  {
    "name": "Twenty Below Brewing @ Twenty Tap",
    "brewery_type": "brewpub",
    "street": "5406 N College Ave",
    "address_2": null,
    "address_3": null,
    "city": "Indianapolis",
    "state_province": "Indiana",
    "postal_code": "46220-3126",
    "country": "United States",
    "longitude": -86.1449174,
    "latitude": 39.8095687,
    "phone": "3176028840",
    "website_url": "http://www.twentytap.com",
    "state": "IN",
    "region": null,
    "amenities": "[]",
    "description": null,
    "hours": "{}",
    "image_url": null
  },
  {
    "name": "TwoDEEP Brewing",
    "brewery_type": "brewpub",
    "street": "714 N Capitol Ave",
    "address_2": null,
    "address_3": null,
    "city": "Indianapolis",
    "state_province": "Indiana",
    "postal_code": "46204-1114",
    "country": "United States",
    "longitude": -86.161428,
    "latitude": 39.777426,
    "phone": "3176531884",
    "website_url": "http://www.twodeepbrewing.com",
    "state": "IN",
    "region": null,
    "amenities": "[]",
    "description": null,
    "hours": "{}",
    "image_url": null
  },
  {
    "name": "Union Brewing",
    "brewery_type": "micro",
    "street": "622 S Rangeline Rd Ste Q",
    "address_2": null,
    "address_3": null,
    "city": "Carmel",
    "state_province": "Indiana",
    "postal_code": "46032-2152",
    "country": "United States",
    "longitude": null,
    "latitude": null,
    "phone": "3175644466",
    "website_url": "http://www.unionbrewingco.com",
    "state": "IN",
    "region": null,
    "amenities": "[]",
    "description": null,
    "hours": "{}",
    "image_url": null
  },
  {
    "name": "Upland Brewing Co",
    "brewery_type": "micro",
    "street": "4060 W Profile Pkwy",
    "address_2": null,
    "address_3": null,
    "city": "Bloomington",
    "state_province": "Indiana",
    "postal_code": "47404-2554",
    "country": "United States",
    "longitude": null,
    "latitude": null,
    "phone": "8123362337",
    "website_url": null,
    "state": "IN",
    "region": null,
    "amenities": "[]",
    "description": null,
    "hours": "{}",
    "image_url": null
  },
  {
    "name": "Upland Brewing Co - Bloomington Brewpub",
    "brewery_type": "regional",
    "street": "350 W 11th St",
    "address_2": null,
    "address_3": null,
    "city": "Bloomington",
    "state_province": "Indiana",
    "postal_code": "47404-3720",
    "country": "United States",
    "longitude": -86.53747927,
    "latitude": 39.173423,
    "phone": "8123362337",
    "website_url": "http://www.uplandbeer.com",
    "state": "IN",
    "region": null,
    "amenities": "[]",
    "description": null,
    "hours": "{}",
    "image_url": null
  },
  {
    "name": "Wabash Brewing",
    "brewery_type": "micro",
    "street": "5328 W 79th St",
    "address_2": null,
    "address_3": null,
    "city": "Indianapolis",
    "state_province": "Indiana",
    "postal_code": "46268-1631",
    "country": "United States",
    "longitude": null,
    "latitude": null,
    "phone": "3179384458",
    "website_url": "http://www.wabashbrew.com",
    "state": "IN",
    "region": null,
    "amenities": "[]",
    "description": null,
    "hours": "{}",
    "image_url": null
  },
  {
    "name": "WarPigs USA Brewing Co.",
    "brewery_type": "contract",
    "street": "9750 Indiana Pkwy",
    "address_2": null,
    "address_3": null,
    "city": "Munster",
    "state_province": "Indiana",
    "postal_code": "46321-4004",
    "country": "United States",
    "longitude": null,
    "latitude": null,
    "phone": "2199223565",
    "website_url": "http://warpigs.com",
    "state": "IN",
    "region": null,
    "amenities": "[]",
    "description": null,
    "hours": "{}",
    "image_url": null
  },
  {
    "name": "Wasser Brewing Company",
    "brewery_type": "brewpub",
    "street": "102 E Franklin St",
    "address_2": null,
    "address_3": null,
    "city": "Greencastle",
    "state_province": "Indiana",
    "postal_code": "46135-1220",
    "country": "United States",
    "longitude": -86.86331023,
    "latitude": 39.64467171,
    "phone": "7653019363",
    "website_url": "http://www.wasserbrewing.com",
    "state": "IN",
    "region": null,
    "amenities": "[]",
    "description": null,
    "hours": "{}",
    "image_url": null
  },
  {
    "name": "Westwind Brewery Co.",
    "brewery_type": "planning",
    "street": null,
    "address_2": null,
    "address_3": null,
    "city": "Elkhart",
    "state_province": "Indiana",
    "postal_code": "46514-2204",
    "country": "United States",
    "longitude": null,
    "latitude": null,
    "phone": "5742745073",
    "website_url": "http://www.westwindbrewery.com",
    "state": "IN",
    "region": null,
    "amenities": "[]",
    "description": null,
    "hours": "{}",
    "image_url": null
  },
  {
    "name": "White Raven Brewing",
    "brewery_type": "planning",
    "street": null,
    "address_2": null,
    "address_3": null,
    "city": "Warsaw",
    "state_province": "Indiana",
    "postal_code": "46582-8089",
    "country": "United States",
    "longitude": null,
    "latitude": null,
    "phone": "5747030643",
    "website_url": "http://www.whiteravenbrewing.com",
    "state": "IN",
    "region": null,
    "amenities": "[]",
    "description": null,
    "hours": "{}",
    "image_url": null
  },
  {
    "name": "Wildrose Brewing Company",
    "brewery_type": "brewpub",
    "street": "1104 E Main St",
    "address_2": null,
    "address_3": null,
    "city": "Griffith",
    "state_province": "Indiana",
    "postal_code": "46319-2826",
    "country": "United States",
    "longitude": -87.4155241,
    "latitude": 41.52275923,
    "phone": "2195955054",
    "website_url": "http://www.wildrosebrewing.com",
    "state": "IN",
    "region": null,
    "amenities": "[]",
    "description": null,
    "hours": "{}",
    "image_url": null
  },
  {
    "name": "Windmill Brewing",
    "brewery_type": "micro",
    "street": "2121 Gettler St",
    "address_2": null,
    "address_3": null,
    "city": "Dyer",
    "state_province": "Indiana",
    "postal_code": "46311-1859",
    "country": "United States",
    "longitude": -87.52262489,
    "latitude": 41.49333495,
    "phone": "2194402189",
    "website_url": "http://www.windmillbrew.com",
    "state": "IN",
    "region": null,
    "amenities": "[]",
    "description": null,
    "hours": "{}",
    "image_url": null
  },
  {
    "name": "Wooden Bear Brewing Co",
    "brewery_type": "micro",
    "street": "21 W North St",
    "address_2": null,
    "address_3": null,
    "city": "Greenfield",
    "state_province": "Indiana",
    "postal_code": "46140-2171",
    "country": "United States",
    "longitude": -85.77122303,
    "latitude": 39.78597726,
    "phone": "3173181221",
    "website_url": "http://www.woodenbearbrewing.com",
    "state": "IN",
    "region": null,
    "amenities": "[]",
    "description": null,
    "hours": "{}",
    "image_url": null
  },
  {
    "name": "Zorn Brew Works",
    "brewery_type": "micro",
    "street": "605 E 9th St",
    "address_2": null,
    "address_3": null,
    "city": "Michigan City",
    "state_province": "Indiana",
    "postal_code": "46360-3651",
    "country": "United States",
    "longitude": -86.89216786,
    "latitude": 41.714577,
    "phone": "2193316322",
    "website_url": "http://www.zornbrewworks.com",
    "state": "IN",
    "region": null,
    "amenities": "[]",
    "description": null,
    "hours": "{}",
    "image_url": null
  },
  {
    "name": "ZwanzigZ Brewing",
    "brewery_type": "brewpub",
    "street": "1038 Lafayette Ave",
    "address_2": null,
    "address_3": null,
    "city": "Columbus",
    "state_province": "Indiana",
    "postal_code": "47201-5756",
    "country": "United States",
    "longitude": -85.91883647,
    "latitude": 39.20865674,
    "phone": "8123760200",
    "website_url": "http://www.zwanzigz.com",
    "state": "IN",
    "region": null,
    "amenities": "[]",
    "description": null,
    "hours": "{}",
    "image_url": null
  }
]