[
  {
    "name": "23 Brewing Company / Lizzie B's Cafe",
    "brewery_type": "brewpub",
    "street": "2010 KY Route 321",
    "address_2": null,
    "address_3": null,
    "city": "Prestonsburg",
    "state_province": "Kentucky",
    "postal_code": "41653-9103",
    "country": "United States",
    "longitude": null,
    "latitude": null,
    "phone": "6068862844",
    "website_url": "http://www.23brewingcompany.com",
    "state": "KY",
    "region": null,
    "amenities": "[]",
    "description": null,
    "hours": "{}",
    "image_url": null
  },
  {
    "name": "3rd Turn Brewing",
    "brewery_type": "micro",
    "street": "10408 Watterson Trl",
    "address_2": null,
    "address_3": null,
    "city": "Louisville",
    "state_province": "Kentucky",
    "postal_code": "40299-3702",
    "country": "United States",
    "longitude": -85.56656078,
    "latitude": 38.19322725,
    "phone": null,
    "website_url": "http://www.3rdturnbrewing.com",
    "state": "KY",
    "region": null,
    "amenities": "[]",
    "description": null,
    "hours": "{}",
    "image_url": null
  },
  {
    "name": "Against the Grain Beer Garden",
    "brewery_type": "planning",
    "street": null,
    "address_2": null,
    "address_3": null,
    "city": "Louisville",
    "state_province": "Kentucky",
    "postal_code": "40217",
    "country": "United States",
    "longitude": null,
    "latitude": null,
    "phone": null,
    "website_url": null,
    "state": "KY",
    "region": null,
    "amenities": "[]",
    "description": null,
    "hours": "{}",
    "image_url": null
  },
  {
    "name": "Against the Grain Brewery",
    "brewery_type": "micro",
    "street": "401 E Main St",
    "address_2": null,
    "address_3": null,
    "city": "Louisville",
    "state_province": "Kentucky",
    "postal_code": "40202-1110",
    "country": "United States",
    "longitude": -85.7440377,
    "latitude": 38.2554568,
    "phone": "5025150174",
    "website_url": "http://atgbrewery.com",
    "state": "KY",
    "region": null,
    "amenities": "[]",
    "description": null,
    "hours": "{}",
    "image_url": null
  },
  {
    "name": "Against the Grain Production Facility",
    "brewery_type": "micro",
    "street": "1800 Northwestern Pkwy",
    "address_2": null,
    "address_3": null,
    "city": "Louisville",
    "state_province": "Kentucky",
    "postal_code": "40203",
    "country": "United States",
    "longitude": -85.7767241,
    "latitude": 38.2658758,
    "phone": null,
    "website_url": null,
    "state": "KY",
    "region": null,
    "amenities": "[]",
    "description": null,
    "hours": "{}",
    "image_url": null
  },
  {
    "name": "Akasha Brewing Company",
    "brewery_type": "micro",
    "street": "909 E Market St Ste 700",
    "address_2": null,
    "address_3": null,
    "city": "Louisville",
    "state_province": "Kentucky",
    "postal_code": "40206-1688",
    "country": "United States",
    "longitude": null,
    "latitude": null,
    "phone": "5027427770",
    "website_url": "http://www.akashabrewing.com",
    "state": "KY",
    "region": null,
    "amenities": "[]",
    "description": null,
    "hours": "{}",
    "image_url": null
  },
  {
    "name": "Alexandria Brewing Company",
    "brewery_type": "micro",
    "street": "7926 Alexandria Pike Ste 1",
    "address_2": null,
    "address_3": null,
    "city": "Alexandria",
    "state_province": "Kentucky",
    "postal_code": "41001-1454",
    "country": "United States",
    "longitude": null,
    "latitude": null,
    "phone": "8596946999",
    "website_url": "http://www.alexandriabrewingcompany.com",
    "state": "KY",
    "region": null,
    "amenities": "[]",
    "description": null,
    "hours": "{}",
    "image_url": null
  },
  {
    "name": "Alltech's Lexington Brewing",
    "brewery_type": "regional",
    "street": "475 Angliana Ave",
    "address_2": null,
    "address_3": null,
    "city": "Lexington",
    "state_province": "Kentucky",
    "postal_code": "40508-3134",
    "country": "United States",
    "longitude": -84.51599645,
    "latitude": 38.04950651,
    "phone": "8592552337",
    "website_url": "http://www.Kentuckyale.com",
    "state": "KY",
    "region": null,
    "amenities": "[]",
    "description": null,
    "hours": "{}",
    "image_url": null
  },
  {
    "name": "Apocalypse Brew Works",
    "brewery_type": "micro",
    "street": "1612 Mellwood Ave",
    "address_2": null,
    "address_3": null,
    "city": "Louisville",
    "state_province": "Kentucky",
    "postal_code": "40206-1752",
    "country": "United States",
    "longitude": -85.72031443,
    "latitude": 38.2566442,
    "phone": "5025894843",
    "website_url": "http://www.apocalypsebrewworks.com",
    "state": "KY",
    "region": null,
    "amenities": "[]",
    "description": null,
    "hours": "{}",
    "image_url": null
  },
  {
    "name": "Beer Engine",
    "brewery_type": "micro",
    "street": "107 Larrimore Ln",
    "address_2": null,
    "address_3": null,
    "city": "Danville",
    "state_province": "Kentucky",
    "postal_code": "40422-1674",
    "country": "United States",
    "longitude": -84.771328,
    "latitude": 37.6481,
    "phone": "5024035680",
    "website_url": "http://www.kybeerengine.com",
    "state": "KY",
    "region": null,
    "amenities": "[]",
    "description": null,
    "hours": "{}",
    "image_url": null
  },
  {
    "name": "Bircus Brewing",
    "brewery_type": "micro",
    "street": "322 Elm St",
    "address_2": null,
    "address_3": null,
    "city": "Ludlow",
    "state_province": "Kentucky",
    "postal_code": "41016-1451",
    "country": "United States",
    "longitude": -84.54923129,
    "latitude": 39.0935089,
    "phone": "8593607757",
    "website_url": "http://www.bircus.com",
    "state": "KY",
    "region": null,
    "amenities": "[]",
    "description": null,
    "hours": "{}",
    "image_url": null
  },
  {
    "name": "Blue Stallion Brewing Company",
    "brewery_type": "micro",
    "street": "610 W Third St",
    "address_2": null,
    "address_3": null,
    "city": "Lexington",
    "state_province": "Kentucky",
    "postal_code": "40508-1243",
    "country": "United States",
    "longitude": -84.50136234,
    "latitude": 38.05710985,
    "phone": "8596088490",
    "website_url": "http://www.bluestallionbrewing.com",
    "state": "KY",
    "region": null,
    "amenities": "[]",
    "description": null,
    "hours": "{}",
    "image_url": null
  },
  {
    "name": "Bluegrass Brewing Co - Brewpub",
    "brewery_type": "brewpub",
    "street": "300 W Main St",
    "address_2": null,
    "address_3": null,
    "city": "Louisville",
    "state_province": "Kentucky",
    "postal_code": "40202-2945",
    "country": "United States",
    "longitude": -85.75508898,
    "latitude": 38.25620645,
    "phone": "5028997070",
    "website_url": "http://www.bbcbrew.com",
    "state": "KY",
    "region": null,
    "amenities": "[]",
    "description": null,
    "hours": "{}",
    "image_url": null
  },
  {
    "name": "Braxton Brewing Company",
    "brewery_type": "micro",
    "street": "27 W 7th St",
    "address_2": null,
    "address_3": null,
    "city": "Covington",
    "state_province": "Kentucky",
    "postal_code": "41011-2301",
    "country": "United States",
    "longitude": -84.51080761,
    "latitude": 39.08292505,
    "phone": "859615600",
    "website_url": "http://www.braxtonbrewing.com",
    "state": "KY",
    "region": null,
    "amenities": "[]",
    "description": null,
    "hours": "{}",
    "image_url": null
  },
  {
    "name": "Braxton Labs",
    "brewery_type": "micro",
    "street": "95 Riviera Dr",
    "address_2": null,
    "address_3": null,
    "city": "Bellevue",
    "state_province": "Kentucky",
    "postal_code": "41073-1337",
    "country": "United States",
    "longitude": -84.4872671,
    "latitude": 39.10060941,
    "phone": "859615600",
    "website_url": null,
    "state": "KY",
    "region": null,
    "amenities": "[]",
    "description": null,
    "hours": "{}",
    "image_url": null
  },
  {
    "name": "Chase Brewing Company / Chase Tap Room",
    "brewery_type": "brewpub",
    "street": "266 Jefferson St",
    "address_2": null,
    "address_3": null,
    "city": "Lexington",
    "state_province": "Kentucky",
    "postal_code": "40508-1217",
    "country": "United States",
    "longitude": -84.4986682,
    "latitude": 38.0546834,
    "phone": "8597973113",
    "website_url": "http://www.chasebrewing.com",
    "state": "KY",
    "region": null,
    "amenities": "[]",
    "description": null,
    "hours": "{}",
    "image_url": null
  },
  {
    "name": "Country Boy Brewing",
    "brewery_type": "micro",
    "street": "436 Chair Ave",
    "address_2": null,
    "address_3": null,
    "city": "Lexington",
    "state_province": "Kentucky",
    "postal_code": "40508-3106",
    "country": "United States",
    "longitude": -84.50925267,
    "latitude": 38.0439487,
    "phone": null,
    "website_url": "http://www.countryboybrewing.com",
    "state": "KY",
    "region": null,
    "amenities": "[]",
    "description": null,
    "hours": "{}",
    "image_url": null
  },
  {
    "name": "Country Boy Brewing - Georgetown",
    "brewery_type": "micro",
    "street": "108 Corporate Dr",
    "address_2": null,
    "address_3": null,
    "city": "Georgetown",
    "state_province": "Kentucky",
    "postal_code": "40324-0000",
    "country": "United States",
    "longitude": null,
    "latitude": null,
    "phone": "8595882118",
    "website_url": null,
    "state": "KY",
    "region": null,
    "amenities": "[]",
    "description": null,
    "hours": "{}",
    "image_url": null
  },
  {
    "name": "Cumberland Brewery",
    "brewery_type": "brewpub",
    "street": "1576 Bardstown Rd",
    "address_2": null,
    "address_3": null,
    "city": "Louisville",
    "state_province": "Kentucky",
    "postal_code": "40205-1154",
    "country": "United States",
    "longitude": -85.70553172,
    "latitude": 38.23084195,
    "phone": "5024594706",
    "website_url": null,
    "state": "KY",
    "region": null,
    "amenities": "[]",
    "description": null,
    "hours": "{}",
    "image_url": null
  },
  {
    "name": "Darkness Brewing",
    "brewery_type": "micro",
    "street": "224 Fairfield Ave",
    "address_2": null,
    "address_3": null,
    "city": "Bellevue",
    "state_province": "Kentucky",
    "postal_code": "41073-1041",
    "country": "United States",
    "longitude": -84.48468072,
    "latitude": 39.10500991,
    "phone": null,
    "website_url": null,
    "state": "KY",
    "region": null,
    "amenities": "[]",
    "description": null,
    "hours": "{}",
    "image_url": null
  },
  {
    "name": "Dreaming Creek Brewery",
    "brewery_type": "micro",
    "street": "109 E Irvine St",
    "address_2": null,
    "address_3": null,
    "city": "Richmond",
    "state_province": "Kentucky",
    "postal_code": "40475-1521",
    "country": "United States",
    "longitude": -84.29111565,
    "latitude": 37.747285,
    "phone": null,
    "website_url": "http://www.dreamingcreekbrewery.beer",
    "state": "KY",
    "region": null,
    "amenities": "[]",
    "description": null,
    "hours": "{}",
    "image_url": null
  },
  {
    "name": "Dry Ground Brewing Company",
    "brewery_type": "micro",
    "street": "3121 Broadway St",
    "address_2": null,
    "address_3": null,
    "city": "Paducah",
    "state_province": "Kentucky",
    "postal_code": "42001-4305",
    "country": "United States",
    "longitude": -88.63767771,
    "latitude": 37.0705097,
    "phone": "2702109296",
    "website_url": "http://www.drygroundbrewing.com",
    "state": "KY",
    "region": null,
    "amenities": "[]",
    "description": null,
    "hours": "{}",
    "image_url": null
  },
  {
    "name": "Dueling Barrels",
    "brewery_type": "micro",
    "street": "745 Hambley Blvd",
    "address_2": null,
    "address_3": null,
    "city": "Pikeville",
    "state_province": "Kentucky",
    "postal_code": "41501-9078",
    "country": "United States",
    "longitude": -82.518819,
    "latitude": 37.48176335,
    "phone": "6067663835",
    "website_url": "http://www.duelingbarrels.com",
    "state": "KY",
    "region": null,
    "amenities": "[]",
    "description": null,
    "hours": "{}",
    "image_url": null
  },
  {
    "name": "Ethereal Brewing",
    "brewery_type": "micro",
    "street": "1224 Manchester St",
    "address_2": null,
    "address_3": null,
    "city": "Lexington",
    "state_province": "Kentucky",
    "postal_code": "40504-1129",
    "country": "United States",
    "longitude": -84.5200035,
    "latitude": 38.056562,
    "phone": "8593091254",
    "website_url": "http://www.etherealbrew.com",
    "state": "KY",
    "region": null,
    "amenities": "[]",
    "description": null,
    "hours": "{}",
    "image_url": null
  },
  {
    "name": "Falls City Brewing Company",
    "brewery_type": "micro",
    "street": "901 E Liberty St",
    "address_2": null,
    "address_3": null,
    "city": "Louisville",
    "state_province": "Kentucky",
    "postal_code": "40204",
    "country": "United States",
    "longitude": -85.73625618,
    "latitude": 38.25036895,
    "phone": "5022577284",
    "website_url": "http://www.fallscitybeer.com",
    "state": "KY",
    "region": null,
    "amenities": "[]",
    "description": null,
    "hours": "{}",
    "image_url": null
  },
  {
    "name": "Flywheel Brewing Company",
    "brewery_type": "micro",
    "street": "218 S Mulberry St Ste 103",
    "address_2": null,
    "address_3": null,
    "city": "Elizabethtown",
    "state_province": "Kentucky",
    "postal_code": "42701-1431",
    "country": "United States",
    "longitude": null,
    "latitude": null,
    "phone": null,
    "website_url": "http://www.flywheelbrewing.com",
    "state": "KY",
    "region": null,
    "amenities": "[]",
    "description": null,
    "hours": "{}",
    "image_url": null
  },
  {
    "name": "Goodwood Brewing Co",
    "brewery_type": "micro",
    "street": "636 E Main St",
    "address_2": null,
    "address_3": null,
    "city": "Louisville",
    "state_province": "Kentucky",
    "postal_code": "40202-1004",
    "country": "United States",
    "longitude": -85.7400684,
    "latitude": 38.254635,
    "phone": "5025842739",
    "website_url": "http://www.goodwood.beer",
    "state": "KY",
    "region": null,
    "amenities": "[]",
    "description": null,
    "hours": "{}",
    "image_url": null
  },
  {
    "name": "Gordon Biersch Brewery Restaurant - Louisville",
    "brewery_type": "brewpub",
    "street": "400 S 4th St",
    "address_2": null,
    "address_3": null,
    "city": "Louisville",
    "state_province": "Kentucky",
    "postal_code": "40202-3418",
    "country": "United States",
    "longitude": -85.7574044,
    "latitude": 38.2528789,
    "phone": "5025898935",
    "website_url": "http://www.gordonbiersch.com/restaurant",
    "state": "KY",
    "region": null,
    "amenities": "[]",
    "description": null,
    "hours": "{}",
    "image_url": null
  },
  {
    "name": "Gravely Brewing Co.",
    "brewery_type": "micro",
    "street": "514 Baxter Ave",
    "address_2": null,
    "address_3": null,
    "city": "Louisville",
    "state_province": "Kentucky",
    "postal_code": "40204-1104",
    "country": "United States",
    "longitude": -85.7301702,
    "latitude": 38.2470763,
    "phone": "5028223202",
    "website_url": "http://www.gravelybrewing.com",
    "state": "KY",
    "region": null,
    "amenities": "[]",
    "description": null,
    "hours": "{}",
    "image_url": null
  },
  {
    "name": "Great Flood Brewing",
    "brewery_type": "micro",
    "street": "2120 Bardstown Rd",
    "address_2": null,
    "address_3": null,
    "city": "Louisville",
    "state_province": "Kentucky",
    "postal_code": "40205-1916",
    "country": "United States",
    "longitude": -85.6938076,
    "latitude": 38.2239974,
    "phone": "5024577711",
    "website_url": "http://www.greatfloodbrewing.com",
    "state": "KY",
    "region": null,
    "amenities": "[]",
    "description": null,
    "hours": "{}",
    "image_url": null
  },
  {
    "name": "Great Flood Brewing- Production Facility",
    "brewery_type": "micro",
    "street": "629 Bergman St",
    "address_2": null,
    "address_3": null,
    "city": "Louisville",
    "state_province": "Kentucky",
    "postal_code": "40203-2618",
    "country": "United States",
    "longitude": -85.74511415,
    "latitude": 38.2290463,
    "phone": "5024577711",
    "website_url": null,
    "state": "KY",
    "region": null,
    "amenities": "[]",
    "description": null,
    "hours": "{}",
    "image_url": null
  },
  {
    "name": "Henderson Brewing Company",
    "brewery_type": "planning",
    "street": null,
    "address_2": null,
    "address_3": null,
    "city": "Henderson",
    "state_province": "Kentucky",
    "postal_code": "42420-3226",
    "country": "United States",
    "longitude": null,
    "latitude": null,
    "phone": "2702004314",
    "website_url": null,
    "state": "KY",
    "region": null,
    "amenities": "[]",
    "description": null,
    "hours": "{}",
    "image_url": null
  },
  {
    "name": "Hofbrauhaus Newport",
    "brewery_type": "brewpub",
    "street": "200 E 3rd St",
    "address_2": null,
    "address_3": null,
    "city": "Newport",
    "state_province": "Kentucky",
    "postal_code": "41071-1612",
    "country": "United States",
    "longitude": -84.494527,
    "latitude": 39.094846,
    "phone": "8594917200",
    "website_url": "http://www.hofbrauhausnewport.com",
    "state": "KY",
    "region": null,
    "amenities": "[]",
    "description": null,
    "hours": "{}",
    "image_url": null
  },
  {
    "name": "Holsopple Brewing",
    "brewery_type": "micro",
    "street": "8023 Catherine Ln",
    "address_2": null,
    "address_3": null,
    "city": "Louisville",
    "state_province": "Kentucky",
    "postal_code": "40222-4793",
    "country": "United States",
    "longitude": -85.6064539,
    "latitude": 38.2598078,
    "phone": "5027081902",
    "website_url": "http://www.holsopplebrewing.com",
    "state": "KY",
    "region": null,
    "amenities": "[]",
    "description": null,
    "hours": "{}",
    "image_url": null
  },
  {
    "name": "Hopcat - Louisville",
    "brewery_type": "brewpub",
    "street": "1064 Bardstown Rd.",
    "address_2": null,
    "address_3": null,
    "city": "Louisville",
    "state_province": "Kentucky",
    "postal_code": "40204",
    "country": "United States",
    "longitude": -85.7217319,
    "latitude": 38.2385242,
    "phone": "5028908676",
    "website_url": null,
    "state": "KY",
    "region": null,
    "amenities": "[]",
    "description": null,
    "hours": "{}",
    "image_url": null
  },
  {
    "name": "Hopkinsville Brewing Company",
    "brewery_type": "micro",
    "street": "102 E 5th St",
    "address_2": null,
    "address_3": null,
    "city": "Hopkinsville",
    "state_province": "Kentucky",
    "postal_code": "42240-3306",
    "country": "United States",
    "longitude": -87.48735745,
    "latitude": 36.86749436,
    "phone": "2703483927",
    "website_url": "http://www.hopkinsvillebrewingcompany.com",
    "state": "KY",
    "region": null,
    "amenities": "[]",
    "description": null,
    "hours": "{}",
    "image_url": null
  },
  {
    "name": "Jarfly Brewing Co",
    "brewery_type": "micro",
    "street": "103 W Mount Vernon St",
    "address_2": null,
    "address_3": null,
    "city": "Somerset",
    "state_province": "Kentucky",
    "postal_code": "42501-1627",
    "country": "United States",
    "longitude": -84.60558001,
    "latitude": 37.09179504,
    "phone": "6064254962",
    "website_url": "http://www.jarflybrewing.com",
    "state": "KY",
    "region": null,
    "amenities": "[]",
    "description": null,
    "hours": "{}",
    "image_url": null
  },
  {
    "name": "Lemons Mill Brewery",
    "brewery_type": "micro",
    "street": "166 Marimon Ave",
    "address_2": null,
    "address_3": null,
    "city": "Harrodsburg",
    "state_province": "Kentucky",
    "postal_code": "40330-1311",
    "country": "United States",
    "longitude": -84.83862624,
    "latitude": 37.7608082,
    "phone": "8592650872",
    "website_url": "http://www.lemonsmillbrewery.com",
    "state": "KY",
    "region": null,
    "amenities": "[]",
    "description": null,
    "hours": "{}",
    "image_url": null
  },
  {
    "name": "Life Brewpub",
    "brewery_type": "brewpub",
    "street": "2628 Richmond Rd",
    "address_2": null,
    "address_3": null,
    "city": "Lexington",
    "state_province": "Kentucky",
    "postal_code": "40509-1501",
    "country": "United States",
    "longitude": -84.43443,
    "latitude": 37.991255,
    "phone": "8592665433",
    "website_url": "http://www.LifeBrewpub.com",
    "state": "KY",
    "region": null,
    "amenities": "[]",
    "description": null,
    "hours": "{}",
    "image_url": null
  },
  {
    "name": "Maiden City Brewing Company, LLC",
    "brewery_type": "micro",
    "street": "123 E Pike St",
    "address_2": null,
    "address_3": null,
    "city": "Cynthiana",
    "state_province": "Kentucky",
    "postal_code": "41031-1527",
    "country": "United States",
    "longitude": -84.288072,
    "latitude": 38.388396,
    "phone": "8599545151",
    "website_url": "http://www.maidencitybrewing.com",
    "state": "KY",
    "region": null,
    "amenities": "[]",
    "description": null,
    "hours": "{}",
    "image_url": null
  },
  {
    "name": "Mash Cult Brewing",
    "brewery_type": "micro",
    "street": "6823 Burlington Pike",
    "address_2": null,
    "address_3": null,
    "city": "Florence",
    "state_province": "Kentucky",
    "postal_code": "41042-1616",
    "country": "United States",
    "longitude": -84.6436665,
    "latitude": 39.0008541,
    "phone": "8593714466",
    "website_url": null,
    "state": "KY",
    "region": null,
    "amenities": "[]",
    "description": null,
    "hours": "{}",
    "image_url": null
  },
  {
    "name": "Mile Wide Beer Co.",
    "brewery_type": "micro",
    "street": "636 Barret Ave",
    "address_2": null,
    "address_3": null,
    "city": "Louisville",
    "state_province": "Kentucky",
    "postal_code": "40204-1142",
    "country": "United States",
    "longitude": -85.7330744,
    "latitude": 38.2465656,
    "phone": "5024098139",
    "website_url": "http://www.milewidebeer.com",
    "state": "KY",
    "region": null,
    "amenities": "[]",
    "description": null,
    "hours": "{}",
    "image_url": null
  },
  {
    "name": "Mirror Twin Brewing",
    "brewery_type": "brewpub",
    "street": "725 National Ave",
    "address_2": null,
    "address_3": null,
    "city": "Lexington",
    "state_province": "Kentucky",
    "postal_code": "40502-1431",
    "country": "United States",
    "longitude": -84.4784656,
    "latitude": 38.04042235,
    "phone": "8594478146",
    "website_url": "http://www.mirrortwinbrewing.com",
    "state": "KY",
    "region": null,
    "amenities": "[]",
    "description": null,
    "hours": "{}",
    "image_url": null
  },
  {
    "name": "Monnik Beer Company",
    "brewery_type": "brewpub",
    "street": "1036 E Burnett Ave",
    "address_2": null,
    "address_3": null,
    "city": "Louisville",
    "state_province": "Kentucky",
    "postal_code": "40217-1206",
    "country": "United States",
    "longitude": -85.739379,
    "latitude": 38.2225607,
    "phone": "5027426564",
    "website_url": null,
    "state": "KY",
    "region": null,
    "amenities": "[]",
    "description": null,
    "hours": "{}",
    "image_url": null
  },
  {
    "name": "Old Louisville Brewery",
    "brewery_type": "micro",
    "street": "625 W Magnolia Ave",
    "address_2": null,
    "address_3": null,
    "city": "Louisville",
    "state_province": "Kentucky",
    "postal_code": "40208-2239",
    "country": "United States",
    "longitude": -85.76579382,
    "latitude": 38.22970855,
    "phone": "5024985434",
    "website_url": "http://www.oldlouisvillebrewery.com",
    "state": "KY",
    "region": null,
    "amenities": "[]",
    "description": null,
    "hours": "{}",
    "image_url": null
  },
  {
    "name": "Paducah Beer Werks",
    "brewery_type": "brewpub",
    "street": "301 N 4th St",
    "address_2": null,
    "address_3": null,
    "city": "Paducah",
    "state_province": "Kentucky",
    "postal_code": "42001-0753",
    "country": "United States",
    "longitude": -88.599512,
    "latitude": 37.088841,
    "phone": null,
    "website_url": "http://www.paducahbeerwerks.com",
    "state": "KY",
    "region": null,
    "amenities": "[]",
    "description": null,
    "hours": "{}",
    "image_url": null
  },
  {
    "name": "Pivot Brewing Company",
    "brewery_type": "micro",
    "street": "1400 Delaware Ave",
    "address_2": null,
    "address_3": null,
    "city": "Lexington",
    "state_province": "Kentucky",
    "postal_code": "40505",
    "country": "United States",
    "longitude": -84.470627,
    "latitude": 38.038574,
    "phone": "8592856778",
    "website_url": "http://www.pivotbrewingcompany.com",
    "state": "KY",
    "region": null,
    "amenities": "[]",
    "description": null,
    "hours": "{}",
    "image_url": null
  },
  {
    "name": "Rock House Brewing",
    "brewery_type": "micro",
    "street": "119 Luigart Ct",
    "address_2": null,
    "address_3": null,
    "city": "Lexington",
    "state_province": "Kentucky",
    "postal_code": "40508-1686",
    "country": "United States",
    "longitude": -84.48229841,
    "latitude": 38.05652337,
    "phone": "8593687064",
    "website_url": "http://www.rockhousebrewing.com",
    "state": "KY",
    "region": null,
    "amenities": "[]",
    "description": null,
    "hours": "{}",
    "image_url": null
  },
  {
    "name": "Rooster Brewing",
    "brewery_type": "micro",
    "street": "609 Main St",
    "address_2": null,
    "address_3": null,
    "city": "Paris",
    "state_province": "Kentucky",
    "postal_code": "40361-1816",
    "country": "United States",
    "longitude": -84.25166366,
    "latitude": 38.21039483,
    "phone": "8597073436",
    "website_url": "http://www.roosterbrew.com",
    "state": "KY",
    "region": null,
    "amenities": "[]",
    "description": null,
    "hours": "{}",
    "image_url": null
  },
  {
    "name": "St Arnulf Alery",
    "brewery_type": "micro",
    "street": "3152 Kings Chapel Rd",
    "address_2": null,
    "address_3": null,
    "city": "Cadiz",
    "state_province": "Kentucky",
    "postal_code": "42211-0000",
    "country": "United States",
    "longitude": null,
    "latitude": null,
    "phone": "5023094703",
    "website_url": null,
    "state": "KY",
    "region": null,
    "amenities": "[]",
    "description": null,
    "hours": "{}",
    "image_url": null
  },
  {
    "name": "Sterling Beer Co.",
    "brewery_type": "contract",
    "street": "3214 Preston Hwy",
    "address_2": null,
    "address_3": null,
    "city": "Louisville",
    "state_province": "Kentucky",
    "postal_code": "40213-1330",
    "country": "United States",
    "longitude": -85.7347014,
    "latitude": 38.2019083,
    "phone": "5022338485",
    "website_url": "http://www.sterlingbeer.com",
    "state": "KY",
    "region": null,
    "amenities": "[]",
    "description": null,
    "hours": "{}",
    "image_url": null
  },
  {
    "name": "Tap on Main Brewing Company",
    "brewery_type": "micro",
    "street": "601A N Main St",
    "address_2": null,
    "address_3": null,
    "city": "Somerset",
    "state_province": "Kentucky",
    "postal_code": "42501",
    "country": "United States",
    "longitude": -84.608383,
    "latitude": 37.100832,
    "phone": "6064511525",
    "website_url": "http://www.taponmainst.com",
    "state": "KY",
    "region": null,
    "amenities": "[]",
    "description": null,
    "hours": "{}",
    "image_url": null
  },
  {
    "name": "Town Branch Distillery",
    "brewery_type": "micro",
    "street": "401 Cross St",
    "address_2": null,
    "address_3": null,
    "city": "Lexington",
    "state_province": "Kentucky",
    "postal_code": "40508",
    "country": "United States",
    "longitude": -84.50889213,
    "latitude": 38.04997369,
    "phone": "8592552337",
    "website_url": null,
    "state": "KY",
    "region": null,
    "amenities": "[]",
    "description": null,
    "hours": "{}",
    "image_url": null
  },
  {
    "name": "Uncrafted Territory Brewing Company",
    "brewery_type": "planning",
    "street": null,
    "address_2": null,
    "address_3": null,
    "city": "Beaver Dam",
    "state_province": "Kentucky",
    "postal_code": "42320-1915",
    "country": "United States",
    "longitude": null,
    "latitude": null,
    "phone": "2707753131",
    "website_url": null,
    "state": "KY",
    "region": null,
    "amenities": "[]",
    "description": null,
    "hours": "{}",
    "image_url": null
  },
  {
    "name": "West Sixth Brewing Co",
    "brewery_type": "micro",
    "street": "501 W Sixth St",
    "address_2": null,
    "address_3": null,
    "city": "Lexington",
    "state_province": "Kentucky",
    "postal_code": "40508-1341",
    "country": "United States",
    "longitude": null,
    "latitude": null,
    "phone": "8597050915",
    "website_url": "http://www.westsixth.com",
    "state": "KY",
    "region": null,
    "amenities": "[]",
    "description": null,
    "hours": "{}",
    "image_url": null
  },
  {
    "name": "West Sixth Greenroom",
    "brewery_type": "micro",
    "street": "109 W Main St",
    "address_2": null,
    "address_3": null,
    "city": "Lexington",
    "state_province": "Kentucky",
    "postal_code": "40507",
    "country": "United States",
    "longitude": -84.49712824,
    "latitude": 38.04658314,
    "phone": "8597050915",
    "website_url": null,
    "state": "KY",
    "region": null,
    "amenities": "[]",
    "description": null,
    "hours": "{}",
    "image_url": null
  },
  {
    "name": "White Squirrel Brewery",
    "brewery_type": "brewpub",
    "street": "871 Broadway Ave",
    "address_2": null,
    "address_3": null,
    "city": "Bowling Green",
    "state_province": "Kentucky",
    "postal_code": "42101-2571",
    "country": "United States",
    "longitude": -86.4407388,
    "latitude": 36.9844713,
    "phone": "2709041573",
    "website_url": "http://www.whitesquirrelbrewery.com",
    "state": "KY",
    "region": null,
    "amenities": "[]",
    "description": null,
    "hours": "{}",
    "image_url": null
  },
  {
    "name": "Wooden Cask Brewing Company",
    "brewery_type": "micro",
    "street": "629 York St",
    "address_2": null,
    "address_3": null,
    "city": "Newport",
    "state_province": "Kentucky",
    "postal_code": "41071-1815",
    "country": "United States",
    "longitude": -84.49457871,
    "latitude": 39.09061257,
    "phone": "8592612172",
    "website_url": "http://www.woodencask.com",
    "state": "KY",
    "region": null,
    "amenities": "[]",
    "description": null,
    "hours": "{}",
    "image_url": null
  }
]