[
  {
    "name": "180 and Tapped",
    "brewery_type": "micro",
    "street": "2010 A State Ave",
    "address_2": null,
    "address_3": null,
    "city": "Coraopolis",
    "state_province": "Pennsylvania",
    "postal_code": "15108",
    "country": "United States",
    "longitude": -80.15020356,
    "latitude": 40.50984957,
    "phone": "4127375273",
    "website_url": "http://www.180andtapped.com",
    "state": "PA",
    "region": null,
    "amenities": "[]",
    "description": null,
    "hours": "{}",
    "image_url": null
  },
  {
    "name": "2 Dogz and A Guy Brewing",
    "brewery_type": "micro",
    "street": "228 Church St",
    "address_2": null,
    "address_3": null,
    "city": "Montrose",
    "state_province": "Pennsylvania",
    "postal_code": "18801-1271",
    "country": "United States",
    "longitude": -75.8800318,
    "latitude": 41.8336364,
    "phone": "5704320069",
    "website_url": "http://2dogzandaguybrewing.com",
    "state": "PA",
    "region": null,
    "amenities": "[]",
    "description": null,
    "hours": "{}",
    "image_url": null
  },
  {
    "name": "2nd Story Brewing Company",
    "brewery_type": "brewpub",
    "street": "117 Chestnut St Frnt",
    "address_2": null,
    "address_3": null,
    "city": "Philadelphia",
    "state_province": "Pennsylvania",
    "postal_code": "19106-4700",
    "country": "United States",
    "longitude": null,
    "latitude": null,
    "phone": "2673145770",
    "website_url": "http://www.2ndstorybrewing.com/",
    "state": "PA",
    "region": null,
    "amenities": "[]",
    "description": null,
    "hours": "{}",
    "image_url": null
  },
  {
    "name": "2SP Brewing Company",
    "brewery_type": "micro",
    "street": "120 Concord Rd",
    "address_2": null,
    "address_3": null,
    "city": "Aston",
    "state_province": "Pennsylvania",
    "postal_code": "19014-2909",
    "country": "United States",
    "longitude": null,
    "latitude": null,
    "phone": "4844837860",
    "website_url": "http://www.2spbrewing.com",
    "state": "PA",
    "region": null,
    "amenities": "[]",
    "description": null,
    "hours": "{}",
    "image_url": null
  },
  {
    "name": "412 Brews",
    "brewery_type": "brewpub",
    "street": "706 Island Ave",
    "address_2": null,
    "address_3": null,
    "city": "Mc Kees Rocks",
    "state_province": "Pennsylvania",
    "postal_code": "15136-3287",
    "country": "United States",
    "longitude": null,
    "latitude": null,
    "phone": null,
    "website_url": "http://www.412brews.com",
    "state": "PA",
    "region": null,
    "amenities": "[]",
    "description": null,
    "hours": "{}",
    "image_url": null
  },
  {
    "name": "Abjuration Brewing",
    "brewery_type": "micro",
    "street": "644 Broadway Ave",
    "address_2": null,
    "address_3": null,
    "city": "Mc Kees Rocks",
    "state_province": "Pennsylvania",
    "postal_code": "15136-3008",
    "country": "United States",
    "longitude": null,
    "latitude": null,
    "phone": "4127661668",
    "website_url": "http://www.abjurationbrewing.com",
    "state": "PA",
    "region": null,
    "amenities": "[]",
    "description": null,
    "hours": "{}",
    "image_url": null
  },
  {
    "name": "Aldus Brewing Company",
    "brewery_type": "micro",
    "street": "555 Centennial Ave",
    "address_2": null,
    "address_3": null,
    "city": "Hanover",
    "state_province": "Pennsylvania",
    "postal_code": "17331-3936",
    "country": "United States",
    "longitude": -76.98030009,
    "latitude": 39.79422185,
    "phone": "7176342407",
    "website_url": "http://www.aldusbrewing.com",
    "state": "PA",
    "region": null,
    "amenities": "[]",
    "description": null,
    "hours": "{}",
    "image_url": null
  },
  {
    "name": "All Saints Brewing Co",
    "brewery_type": "micro",
    "street": "1602 State Route 119",
    "address_2": null,
    "address_3": null,
    "city": "Greensburg",
    "state_province": "Pennsylvania",
    "postal_code": "15601-7317",
    "country": "United States",
    "longitude": null,
    "latitude": null,
    "phone": "7242891202",
    "website_url": "http://www.allsaintscraftbrewing.com",
    "state": "PA",
    "region": null,
    "amenities": "[]",
    "description": null,
    "hours": "{}",
    "image_url": null
  },
  {
    "name": "Allegheny City Brewing",
    "brewery_type": "micro",
    "street": "507 Foreland St",
    "address_2": null,
    "address_3": null,
    "city": "Pittsburgh",
    "state_province": "Pennsylvania",
    "postal_code": "15212-4910",
    "country": "United States",
    "longitude": -80.00061073,
    "latitude": 40.45424933,
    "phone": "4129043732",
    "website_url": "http://www.alleghenycitybrewing.com",
    "state": "PA",
    "region": null,
    "amenities": "[]",
    "description": null,
    "hours": "{}",
    "image_url": null
  },
  {
    "name": "Allentown Brew Works",
    "brewery_type": "brewpub",
    "street": "812 Hamilton St",
    "address_2": null,
    "address_3": null,
    "city": "Allentown",
    "state_province": "Pennsylvania",
    "postal_code": "18101-2437",
    "country": "United States",
    "longitude": -75.4575021,
    "latitude": 40.6060468,
    "phone": "6104337777",
    "website_url": "http://www.thebrewworks.com",
    "state": "PA",
    "region": null,
    "amenities": "[]",
    "description": null,
    "hours": "{}",
    "image_url": null
  },
  {
    "name": "American Honor Beer Co",
    "brewery_type": "contract",
    "street": "700 N Pennsylvania Ave",
    "address_2": null,
    "address_3": null,
    "city": "Wilkes Barre",
    "state_province": "Pennsylvania",
    "postal_code": "18705-2451",
    "country": "United States",
    "longitude": -75.859363,
    "latitude": 41.254896,
    "phone": null,
    "website_url": "http://www.BoondoggleBeer.com",
    "state": "PA",
    "region": null,
    "amenities": "[]",
    "description": null,
    "hours": "{}",
    "image_url": null
  },
  {
    "name": "Appalachian Brewing Co - Collegeville",
    "brewery_type": "brewpub",
    "street": "50 W Third Ave Collegeville Station 2nd Floor",
    "address_2": null,
    "address_3": null,
    "city": "Collegeville",
    "state_province": "Pennsylvania",
    "postal_code": "19426-3655",
    "country": "United States",
    "longitude": null,
    "latitude": null,
    "phone": "4849736064",
    "website_url": "http://www.abcbrew.com",
    "state": "PA",
    "region": null,
    "amenities": "[]",
    "description": null,
    "hours": "{}",
    "image_url": null
  },
  {
    "name": "Appalachian Brewing Co - Gettysburg Gateway",
    "brewery_type": "brewpub",
    "street": "70 Presidential Cir",
    "address_2": null,
    "address_3": null,
    "city": "Gettysburg",
    "state_province": "Pennsylvania",
    "postal_code": "17325-8399",
    "country": "United States",
    "longitude": null,
    "latitude": null,
    "phone": "7173982419",
    "website_url": "http://www.abcbrew.com",
    "state": "PA",
    "region": null,
    "amenities": "[]",
    "description": null,
    "hours": "{}",
    "image_url": null
  },
  {
    "name": "Appalachian Brewing Co - Harrisburg",
    "brewery_type": "brewpub",
    "street": "50 N Cameron St",
    "address_2": null,
    "address_3": null,
    "city": "Harrisburg",
    "state_province": "Pennsylvania",
    "postal_code": "17101-2407",
    "country": "United States",
    "longitude": -76.8816961,
    "latitude": 40.291059,
    "phone": "7172211080",
    "website_url": "http://www.abcbrew.com",
    "state": "PA",
    "region": null,
    "amenities": "[]",
    "description": null,
    "hours": "{}",
    "image_url": null
  },
  {
    "name": "Appalachian Brewing Co - Lititz",
    "brewery_type": "brewpub",
    "street": "55 N Water St",
    "address_2": null,
    "address_3": null,
    "city": "Lititz",
    "state_province": "Pennsylvania",
    "postal_code": "17543-1612",
    "country": "United States",
    "longitude": -76.30100986,
    "latitude": 40.15827375,
    "phone": "7172211080",
    "website_url": "http://www.abcbrew.com",
    "state": "PA",
    "region": null,
    "amenities": "[]",
    "description": null,
    "hours": "{}",
    "image_url": null
  },
  {
    "name": "Appalachian Brewing Co - Mechanicsburg",
    "brewery_type": "brewpub",
    "street": "6462 Carlisle Pike",
    "address_2": null,
    "address_3": null,
    "city": "Mechanicsburg",
    "state_province": "Pennsylvania",
    "postal_code": "17050-2384",
    "country": "United States",
    "longitude": null,
    "latitude": null,
    "phone": "7177954660",
    "website_url": "http://www.abcbrew.com",
    "state": "PA",
    "region": null,
    "amenities": "[]",
    "description": null,
    "hours": "{}",
    "image_url": null
  },
  {
    "name": "Arundel Cellars & Brewing Co",
    "brewery_type": "brewpub",
    "street": "11727 E Main Rd",
    "address_2": null,
    "address_3": null,
    "city": "North East",
    "state_province": "Pennsylvania",
    "postal_code": "16428-3635",
    "country": "United States",
    "longitude": -79.8216539,
    "latitude": 42.2195527,
    "phone": "8147251079",
    "website_url": "http://www.arundelcellars.com",
    "state": "PA",
    "region": null,
    "amenities": "[]",
    "description": null,
    "hours": "{}",
    "image_url": null
  },
  {
    "name": "Aston Abbey Brewing Co",
    "brewery_type": "micro",
    "street": "340 Turner Industrial Way",
    "address_2": null,
    "address_3": null,
    "city": "Aston",
    "state_province": "Pennsylvania",
    "postal_code": "19014-3014",
    "country": "United States",
    "longitude": null,
    "latitude": null,
    "phone": "6102452178",
    "website_url": "http://www.astonabbeybrewing.com",
    "state": "PA",
    "region": null,
    "amenities": "[]",
    "description": null,
    "hours": "{}",
    "image_url": null
  },
  {
    "name": "Attic Brewing",
    "brewery_type": "planning",
    "street": null,
    "address_2": null,
    "address_3": null,
    "city": "Philadelphia",
    "state_province": "Pennsylvania",
    "postal_code": "19144-3603",
    "country": "United States",
    "longitude": null,
    "latitude": null,
    "phone": "7082047376",
    "website_url": null,
    "state": "PA",
    "region": null,
    "amenities": "[]",
    "description": null,
    "hours": "{}",
    "image_url": null
  },
  {
    "name": "Aurochs Brewing Company",
    "brewery_type": "micro",
    "street": "8321 Ohio River Blvd",
    "address_2": null,
    "address_3": null,
    "city": "Pittsburgh",
    "state_province": "Pennsylvania",
    "postal_code": "15202-1451",
    "country": "United States",
    "longitude": -80.0221567,
    "latitude": 40.4488158,
    "phone": "7242608737",
    "website_url": null,
    "state": "PA",
    "region": null,
    "amenities": "[]",
    "description": null,
    "hours": "{}",
    "image_url": null
  },
  {
    "name": "Bangor Trust Brewing",
    "brewery_type": "brewpub",
    "street": "15 Broadway",
    "address_2": null,
    "address_3": null,
    "city": "Bangor",
    "state_province": "Pennsylvania",
    "postal_code": "18013-2601",
    "country": "United States",
    "longitude": null,
    "latitude": null,
    "phone": "6104523232",
    "website_url": "http://bangortrustbrewing.com",
    "state": "PA",
    "region": null,
    "amenities": "[]",
    "description": null,
    "hours": "{}",
    "image_url": null
  },
  {
    "name": "Bar Hygge / Brewery Techne",
    "brewery_type": "brewpub",
    "street": "1720 Fairmount Ave",
    "address_2": null,
    "address_3": null,
    "city": "Philadelphia",
    "state_province": "Pennsylvania",
    "postal_code": "19130-2858",
    "country": "United States",
    "longitude": -75.16567302,
    "latitude": 39.96707286,
    "phone": null,
    "website_url": null,
    "state": "PA",
    "region": null,
    "amenities": "[]",
    "description": null,
    "hours": "{}",
    "image_url": null
  },
  {
    "name": "Barley Creek Brewing Co",
    "brewery_type": "brewpub",
    "street": "1774 Sullivan Trl",
    "address_2": null,
    "address_3": null,
    "city": "Tannersville",
    "state_province": "Pennsylvania",
    "postal_code": "18372-7893",
    "country": "United States",
    "longitude": -75.32890575,
    "latitude": 41.05236395,
    "phone": "5706299399",
    "website_url": "http://www.barleycreek.com",
    "state": "PA",
    "region": null,
    "amenities": "[]",
    "description": null,
    "hours": "{}",
    "image_url": null
  },
  {
    "name": "Battlefield Brew Works",
    "brewery_type": "brewpub",
    "street": "248 Hunterstown Rd",
    "address_2": null,
    "address_3": null,
    "city": "Gettysburg",
    "state_province": "Pennsylvania",
    "postal_code": "17325-7840",
    "country": "United States",
    "longitude": null,
    "latitude": null,
    "phone": "7173982907",
    "website_url": "http://www.battlefieldbrewworks.com",
    "state": "PA",
    "region": null,
    "amenities": "[]",
    "description": null,
    "hours": "{}",
    "image_url": null
  },
  {
    "name": "Bayonet Cider Company",
    "brewery_type": "planning",
    "street": null,
    "address_2": null,
    "address_3": null,
    "city": "Pittsburgh",
    "state_province": "Pennsylvania",
    "postal_code": "15206-5111",
    "country": "United States",
    "longitude": null,
    "latitude": null,
    "phone": "5134841943",
    "website_url": null,
    "state": "PA",
    "region": null,
    "amenities": "[]",
    "description": null,
    "hours": "{}",
    "image_url": null
  },
  {
    "name": "Beaver Brewing Co",
    "brewery_type": "brewpub",
    "street": "1820 7th Ave",
    "address_2": null,
    "address_3": null,
    "city": "Beaver Falls",
    "state_province": "Pennsylvania",
    "postal_code": "15010-4001",
    "country": "United States",
    "longitude": -80.3192793,
    "latitude": 40.7650557,
    "phone": null,
    "website_url": "http://www.beaverbrewingcompany.com",
    "state": "PA",
    "region": null,
    "amenities": "[]",
    "description": null,
    "hours": "{}",
    "image_url": null
  },
  {
    "name": "Benny Brewing Co.",
    "brewery_type": "micro",
    "street": "1429 Sans Souci Pkwy",
    "address_2": null,
    "address_3": null,
    "city": "Wilkes Barre",
    "state_province": "Pennsylvania",
    "postal_code": "18706-6025",
    "country": "United States",
    "longitude": null,
    "latitude": null,
    "phone": "5702356995",
    "website_url": "http://www.martysblueroom.com",
    "state": "PA",
    "region": null,
    "amenities": "[]",
    "description": null,
    "hours": "{}",
    "image_url": null
  },
  {
    "name": "Bent Run Brewing Co",
    "brewery_type": "brewpub",
    "street": "5607 SR 957",
    "address_2": null,
    "address_3": null,
    "city": "Lander",
    "state_province": "Pennsylvania",
    "postal_code": "16345",
    "country": "United States",
    "longitude": null,
    "latitude": null,
    "phone": "8147578269",
    "website_url": "http://www.bentrunbrewing.com",
    "state": "PA",
    "region": null,
    "amenities": "[]",
    "description": null,
    "hours": "{}",
    "image_url": null
  },
  {
    "name": "Berwick Brewing Co",
    "brewery_type": "brewpub",
    "street": "328 W Front St",
    "address_2": null,
    "address_3": null,
    "city": "Berwick",
    "state_province": "Pennsylvania",
    "postal_code": "18603-4757",
    "country": "United States",
    "longitude": -76.2381632,
    "latitude": 41.05243327,
    "phone": "5707524313",
    "website_url": "http://www.berwickbrewing.com",
    "state": "PA",
    "region": null,
    "amenities": "[]",
    "description": null,
    "hours": "{}",
    "image_url": null
  },
  {
    "name": "Bespoke Brewing Company",
    "brewery_type": "brewpub",
    "street": "242 Gap Rd",
    "address_2": null,
    "address_3": null,
    "city": "Ronks",
    "state_province": "Pennsylvania",
    "postal_code": "17572",
    "country": "United States",
    "longitude": null,
    "latitude": null,
    "phone": "7172882255",
    "website_url": "https://www.bespokebrewingco.com",
    "state": "PA",
    "region": null,
    "amenities": "[]",
    "description": null,
    "hours": "{}",
    "image_url": null
  },
  {
    "name": "Big Bottom Brewery",
    "brewery_type": "micro",
    "street": "6 Tristan Dr",
    "address_2": null,
    "address_3": null,
    "city": "Dillsburg",
    "state_province": "Pennsylvania",
    "postal_code": "17019-1627",
    "country": "United States",
    "longitude": null,
    "latitude": null,
    "phone": "7175028800",
    "website_url": "http://www.facebook.com/bigbottombrewery",
    "state": "PA",
    "region": null,
    "amenities": "[]",
    "description": null,
    "hours": "{}",
    "image_url": null
  },
  {
    "name": "Birthright Brewing Co.",
    "brewery_type": "brewpub",
    "street": "57 S Main St",
    "address_2": null,
    "address_3": null,
    "city": "Nazareth",
    "state_province": "Pennsylvania",
    "postal_code": "18064-2037",
    "country": "United States",
    "longitude": -75.31224579,
    "latitude": 40.74211365,
    "phone": "6103652225",
    "website_url": "http://www.birthrightbrewingco.com",
    "state": "PA",
    "region": null,
    "amenities": "[]",
    "description": null,
    "hours": "{}",
    "image_url": null
  },
  {
    "name": "Black Forest Brewery",
    "brewery_type": "brewpub",
    "street": "301 W Main St",
    "address_2": null,
    "address_3": null,
    "city": "Ephrata",
    "state_province": "Pennsylvania",
    "postal_code": "17522-1713",
    "country": "United States",
    "longitude": -76.183579,
    "latitude": 40.181767,
    "phone": "7174507217",
    "website_url": "http://www.blackforestbrewery.net",
    "state": "PA",
    "region": null,
    "amenities": "[]",
    "description": null,
    "hours": "{}",
    "image_url": null
  },
  {
    "name": "Black Wolf Brewing LLC",
    "brewery_type": "planning",
    "street": null,
    "address_2": null,
    "address_3": null,
    "city": "Pocono Pines",
    "state_province": "Pennsylvania",
    "postal_code": "18350",
    "country": "United States",
    "longitude": null,
    "latitude": null,
    "phone": null,
    "website_url": null,
    "state": "PA",
    "region": null,
    "amenities": "[]",
    "description": null,
    "hours": "{}",
    "image_url": null
  },
  {
    "name": "Bloom Brew",
    "brewery_type": "micro",
    "street": "100 Riverside Dr",
    "address_2": null,
    "address_3": null,
    "city": "West Newton",
    "state_province": "Pennsylvania",
    "postal_code": "15089-1542",
    "country": "United States",
    "longitude": -79.768066,
    "latitude": 40.210228,
    "phone": "7243224494",
    "website_url": "http://www.bloombrew.com",
    "state": "PA",
    "region": null,
    "amenities": "[]",
    "description": null,
    "hours": "{}",
    "image_url": null
  },
  {
    "name": "Blue Canoe Brewery",
    "brewery_type": "brewpub",
    "street": "113 S Franklin St",
    "address_2": null,
    "address_3": null,
    "city": "Titusville",
    "state_province": "Pennsylvania",
    "postal_code": "16354-1737",
    "country": "United States",
    "longitude": -79.6733234,
    "latitude": 41.6230211,
    "phone": "8147750077",
    "website_url": null,
    "state": "PA",
    "region": null,
    "amenities": "[]",
    "description": null,
    "hours": "{}",
    "image_url": null
  },
  {
    "name": "Blueprint Brewing Co.",
    "brewery_type": "micro",
    "street": "1571 Gehman Rd",
    "address_2": null,
    "address_3": null,
    "city": "Harleysville",
    "state_province": "Pennsylvania",
    "postal_code": "19438-2930",
    "country": "United States",
    "longitude": null,
    "latitude": null,
    "phone": "4843197901",
    "website_url": "http://www.blueprintbrewco.com",
    "state": "PA",
    "region": null,
    "amenities": "[]",
    "description": null,
    "hours": "{}",
    "image_url": null
  },
  {
    "name": "Bluestone Brewing Company",
    "brewery_type": "brewpub",
    "street": "18 Pitney St",
    "address_2": null,
    "address_3": null,
    "city": "Sayre",
    "state_province": "Pennsylvania",
    "postal_code": "18840-2720",
    "country": "United States",
    "longitude": -76.54508776,
    "latitude": 41.99222929,
    "phone": "5707310222",
    "website_url": "http://www.bluestonebrewingcompany.com",
    "state": "PA",
    "region": null,
    "amenities": "[]",
    "description": null,
    "hours": "{}",
    "image_url": null
  },
  {
    "name": "Bog Turtle Brewery, LLC",
    "brewery_type": "micro",
    "street": "14 S 3rd St Ste 1",
    "address_2": null,
    "address_3": null,
    "city": "Oxford",
    "state_province": "Pennsylvania",
    "postal_code": "19363-1601",
    "country": "United States",
    "longitude": null,
    "latitude": null,
    "phone": "4847580416",
    "website_url": "http://www.bogturtlebrewery.com",
    "state": "PA",
    "region": null,
    "amenities": "[]",
    "description": null,
    "hours": "{}",
    "image_url": null
  },
  {
    "name": "Boneshire Brew Works",
    "brewery_type": "micro",
    "street": "7462 Derry St",
    "address_2": null,
    "address_3": null,
    "city": "Harrisburg",
    "state_province": "Pennsylvania",
    "postal_code": "17111-5228",
    "country": "United States",
    "longitude": -76.8712077,
    "latitude": 40.2633825,
    "phone": "7174127814",
    "website_url": "http://www.boneshire.com",
    "state": "PA",
    "region": null,
    "amenities": "[]",
    "description": null,
    "hours": "{}",
    "image_url": null
  },
  {
    "name": "Bonn Place Brewing",
    "brewery_type": "micro",
    "street": "310 Taylor St",
    "address_2": null,
    "address_3": null,
    "city": "Bethlehem",
    "state_province": "Pennsylvania",
    "postal_code": "18015",
    "country": "United States",
    "longitude": -75.3745048,
    "latitude": 40.6116536,
    "phone": "6104196660",
    "website_url": "http://www.bonnbrewing.com",
    "state": "PA",
    "region": null,
    "amenities": "[]",
    "description": null,
    "hours": "{}",
    "image_url": null
  },
  {
    "name": "Boom City Brewing",
    "brewery_type": "brewpub",
    "street": "317 Pine St",
    "address_2": null,
    "address_3": null,
    "city": "Williamsport",
    "state_province": "Pennsylvania",
    "postal_code": "17701-6509",
    "country": "United States",
    "longitude": -77.00331232,
    "latitude": 41.24108564,
    "phone": "2722022956",
    "website_url": "http://www.boomcitybrewing.com",
    "state": "PA",
    "region": null,
    "amenities": "[]",
    "description": null,
    "hours": "{}",
    "image_url": null
  },
  {
    "name": "Boxcar Brewing Co LLC",
    "brewery_type": "micro",
    "street": "306 Westtown Rd Ste C",
    "address_2": null,
    "address_3": null,
    "city": "West Chester",
    "state_province": "Pennsylvania",
    "postal_code": "19382-4983",
    "country": "United States",
    "longitude": null,
    "latitude": null,
    "phone": "4849472503",
    "website_url": "http://www.boxcarbrewingcompany.com",
    "state": "PA",
    "region": null,
    "amenities": "[]",
    "description": null,
    "hours": "{}",
    "image_url": null
  },
  {
    "name": "Braeloch Brewing Company",
    "brewery_type": "planning",
    "street": null,
    "address_2": null,
    "address_3": null,
    "city": "Kennett Square",
    "state_province": "Pennsylvania",
    "postal_code": "19348-3605",
    "country": "United States",
    "longitude": null,
    "latitude": null,
    "phone": "3026056473",
    "website_url": null,
    "state": "PA",
    "region": null,
    "amenities": "[]",
    "description": null,
    "hours": "{}",
    "image_url": null
  },
  {
    "name": "Breaker Brewing Company",
    "brewery_type": "brewpub",
    "street": "787 E Northampton St",
    "address_2": null,
    "address_3": null,
    "city": "Wilkes Barre",
    "state_province": "Pennsylvania",
    "postal_code": "18702-7521",
    "country": "United States",
    "longitude": -75.8739352,
    "latitude": 41.2338879,
    "phone": null,
    "website_url": null,
    "state": "PA",
    "region": null,
    "amenities": "[]",
    "description": null,
    "hours": "{}",
    "image_url": null
  },
  {
    "name": "Brew 32",
    "brewery_type": "brewpub",
    "street": "1474 State Route 208",
    "address_2": null,
    "address_3": null,
    "city": "Pulaski",
    "state_province": "Pennsylvania",
    "postal_code": "16143-4308",
    "country": "United States",
    "longitude": null,
    "latitude": null,
    "phone": "7242528464",
    "website_url": "http://Www.brew32craft.com",
    "state": "PA",
    "region": null,
    "amenities": "[]",
    "description": null,
    "hours": "{}",
    "image_url": null
  },
  {
    "name": "Brew Gentlemen",
    "brewery_type": "micro",
    "street": "512 Braddock Ave",
    "address_2": null,
    "address_3": null,
    "city": "Braddock",
    "state_province": "Pennsylvania",
    "postal_code": "15104-1806",
    "country": "United States",
    "longitude": -79.8702107,
    "latitude": 40.4041599,
    "phone": "4128715075",
    "website_url": "http://www.brewgentlemen.com",
    "state": "PA",
    "region": null,
    "amenities": "[]",
    "description": null,
    "hours": "{}",
    "image_url": null
  },
  {
    "name": "Brewerie at Union Station, The",
    "brewery_type": "brewpub",
    "street": "123 W 14th St",
    "address_2": null,
    "address_3": null,
    "city": "Erie",
    "state_province": "Pennsylvania",
    "postal_code": "16501-1717",
    "country": "United States",
    "longitude": -80.0819415,
    "latitude": 42.1211965,
    "phone": "8144542200",
    "website_url": "http://www.brewerie.com",
    "state": "PA",
    "region": null,
    "amenities": "[]",
    "description": null,
    "hours": "{}",
    "image_url": null
  },
  {
    "name": "Brewery ARS",
    "brewery_type": "micro",
    "street": "1927-29 W Passyunk Ave",
    "address_2": null,
    "address_3": null,
    "city": "Philadelphia",
    "state_province": "Pennsylvania",
    "postal_code": "19145-3620",
    "country": "United States",
    "longitude": null,
    "latitude": null,
    "phone": "2159605173",
    "website_url": "http://breweryars.com",
    "state": "PA",
    "region": null,
    "amenities": "[]",
    "description": null,
    "hours": "{}",
    "image_url": null
  },
  {
    "name": "Brewtus Brewing Co",
    "brewery_type": "micro",
    "street": "23 Chestnut Ave",
    "address_2": null,
    "address_3": null,
    "city": "Sharon",
    "state_province": "Pennsylvania",
    "postal_code": "16146-",
    "country": "United States",
    "longitude": -80.50749936,
    "latitude": 41.23267888,
    "phone": "7243086293",
    "website_url": "http://www.brewtusbrewing.com",
    "state": "PA",
    "region": null,
    "amenities": "[]",
    "description": null,
    "hours": "{}",
    "image_url": null
  },
  {
    "name": "Brixton Brewing",
    "brewery_type": "brewpub",
    "street": "165 Brighton Ave",
    "address_2": null,
    "address_3": null,
    "city": "Rochester",
    "state_province": "Pennsylvania",
    "postal_code": "15074-2203",
    "country": "United States",
    "longitude": -80.2828549,
    "latitude": 40.70091875,
    "phone": "7247282227",
    "website_url": "http://www.brixtonbrewing.com",
    "state": "PA",
    "region": null,
    "amenities": "[]",
    "description": null,
    "hours": "{}",
    "image_url": null
  },
  {
    "name": "Broken Chair Brewery",
    "brewery_type": "micro",
    "street": "424 East Penn Ave",
    "address_2": null,
    "address_3": null,
    "city": "West Reading",
    "state_province": "Pennsylvania",
    "postal_code": "19611-1130",
    "country": "United States",
    "longitude": null,
    "latitude": null,
    "phone": "4848663948",
    "website_url": "http://www.brokenchairbrewery.com",
    "state": "PA",
    "region": null,
    "amenities": "[]",
    "description": null,
    "hours": "{}",
    "image_url": null
  },
  {
    "name": "Broken Goblet Brewing",
    "brewery_type": "brewpub",
    "street": "1500 Grundy Ln Bldg 1",
    "address_2": null,
    "address_3": null,
    "city": "Bristol",
    "state_province": "Pennsylvania",
    "postal_code": "19007-1521",
    "country": "United States",
    "longitude": null,
    "latitude": null,
    "phone": "2678125653",
    "website_url": "http://www.brokengoblet.com",
    "state": "PA",
    "region": null,
    "amenities": "[]",
    "description": null,
    "hours": "{}",
    "image_url": null
  },
  {
    "name": "Bubes Brewery",
    "brewery_type": "brewpub",
    "street": "102 N Market St",
    "address_2": null,
    "address_3": null,
    "city": "Mount Joy",
    "state_province": "Pennsylvania",
    "postal_code": "17552-1306",
    "country": "United States",
    "longitude": -76.50290152,
    "latitude": 40.11180762,
    "phone": "7176532056",
    "website_url": "http://www.bubesbrewery.com",
    "state": "PA",
    "region": null,
    "amenities": "[]",
    "description": null,
    "hours": "{}",
    "image_url": null
  },
  {
    "name": "Bucks County Brewery",
    "brewery_type": "micro",
    "street": "31 Appletree Ln",
    "address_2": null,
    "address_3": null,
    "city": "Pipersville",
    "state_province": "Pennsylvania",
    "postal_code": "18947-1083",
    "country": "United States",
    "longitude": null,
    "latitude": null,
    "phone": "6094392468",
    "website_url": "http://www.buckscountybrewery.com",
    "state": "PA",
    "region": null,
    "amenities": "[]",
    "description": null,
    "hours": "{}",
    "image_url": null
  },
  {
    "name": "Bullfrog Brewery",
    "brewery_type": "brewpub",
    "street": "229 W 4th St",
    "address_2": null,
    "address_3": null,
    "city": "Williamsport",
    "state_province": "Pennsylvania",
    "postal_code": "17701-6112",
    "country": "United States",
    "longitude": -77.051529,
    "latitude": 41.2399548,
    "phone": "5703264700",
    "website_url": "http://www.bullfrogbrewery.com",
    "state": "PA",
    "region": null,
    "amenities": "[]",
    "description": null,
    "hours": "{}",
    "image_url": null
  },
  {
    "name": "Bullfrog Brewery - Production Only",
    "brewery_type": "micro",
    "street": "229 W 4th St",
    "address_2": null,
    "address_3": null,
    "city": "Williamsport",
    "state_province": "Pennsylvania",
    "postal_code": "17701-6112",
    "country": "United States",
    "longitude": -77.051529,
    "latitude": 41.2399548,
    "phone": "5703264700",
    "website_url": null,
    "state": "PA",
    "region": null,
    "amenities": "[]",
    "description": null,
    "hours": "{}",
    "image_url": null
  },
  {
    "name": "Buon Appetito Ristorante",
    "brewery_type": "brewpub",
    "street": "6147 York Rd",
    "address_2": null,
    "address_3": null,
    "city": "Spring Grove",
    "state_province": "Pennsylvania",
    "postal_code": "17362-9120",
    "country": "United States",
    "longitude": null,
    "latitude": null,
    "phone": "7172250666",
    "website_url": "http://www.buon-appetito-ristorante.com",
    "state": "PA",
    "region": null,
    "amenities": "[]",
    "description": null,
    "hours": "{}",
    "image_url": null
  },
  {
    "name": "Burghâers Brewing",
    "brewery_type": "micro",
    "street": "22410 Perry Hwy Ste 410E",
    "address_2": null,
    "address_3": null,
    "city": "Zelienople",
    "state_province": "Pennsylvania",
    "postal_code": "16063-2935",
    "country": "United States",
    "longitude": null,
    "latitude": null,
    "phone": "4129739628",
    "website_url": "http://Burgherspgh.com",
    "state": "PA",
    "region": null,
    "amenities": "[]",
    "description": null,
    "hours": "{}",
    "image_url": null
  },
  {
    "name": "Butler Brew Works",
    "brewery_type": "brewpub",
    "street": "101 S Main St",
    "address_2": null,
    "address_3": null,
    "city": "Butler",
    "state_province": "Pennsylvania",
    "postal_code": "16001-5907",
    "country": "United States",
    "longitude": -79.895238,
    "latitude": 40.860914,
    "phone": "7242645347",
    "website_url": "http://www.butlerbrewworks.com",
    "state": "PA",
    "region": null,
    "amenities": "[]",
    "description": null,
    "hours": "{}",
    "image_url": null
  },
  {
    "name": "Cave Brewing Co",
    "brewery_type": "micro",
    "street": "1407 Seidersville Rd",
    "address_2": null,
    "address_3": null,
    "city": "Bethlehem",
    "state_province": "Pennsylvania",
    "postal_code": "18015-4219",
    "country": "United States",
    "longitude": -75.3464618,
    "latitude": 40.5910341,
    "phone": "6107391381",
    "website_url": "http://www.cavebrewing.com",
    "state": "PA",
    "region": null,
    "amenities": "[]",
    "description": null,
    "hours": "{}",
    "image_url": null
  },
  {
    "name": "Cellar Works Brewing Co.",
    "brewery_type": "micro",
    "street": "110 S Pike Rd Ste 205",
    "address_2": null,
    "address_3": null,
    "city": "Sarver",
    "state_province": "Pennsylvania",
    "postal_code": "16055-9682",
    "country": "United States",
    "longitude": null,
    "latitude": null,
    "phone": "7245242120",
    "website_url": "http://www.cellarworksbrewing.com",
    "state": "PA",
    "region": null,
    "amenities": "[]",
    "description": null,
    "hours": "{}",
    "image_url": null
  },
  {
    "name": "Center Square Brewing / Altland House",
    "brewery_type": "brewpub",
    "street": "1 Center Sq",
    "address_2": null,
    "address_3": null,
    "city": "Abbottstown",
    "state_province": "Pennsylvania",
    "postal_code": "17301-9502",
    "country": "United States",
    "longitude": null,
    "latitude": null,
    "phone": "7172599535",
    "website_url": "http://centersquarebrew.com",
    "state": "PA",
    "region": null,
    "amenities": "[]",
    "description": null,
    "hours": "{}",
    "image_url": null
  },
  {
    "name": "Chatty Monks Brewing Company",
    "brewery_type": "brewpub",
    "street": "610 Penn Ave",
    "address_2": null,
    "address_3": null,
    "city": "West Reading",
    "state_province": "Pennsylvania",
    "postal_code": "19611-1004",
    "country": "United States",
    "longitude": -75.95000063,
    "latitude": 40.3357192,
    "phone": "4848180176",
    "website_url": "http://www.chattymonks.com",
    "state": "PA",
    "region": null,
    "amenities": "[]",
    "description": null,
    "hours": "{}",
    "image_url": null
  },
  {
    "name": "Church Brew Works/Lawrenceville Brewery Inc.",
    "brewery_type": "brewpub",
    "street": "3525 Liberty Ave",
    "address_2": null,
    "address_3": null,
    "city": "Pittsburgh",
    "state_province": "Pennsylvania",
    "postal_code": "15201-1324",
    "country": "United States",
    "longitude": -79.9643613,
    "latitude": 40.4620769,
    "phone": "4126888200",
    "website_url": "http://www.churchbrew.com",
    "state": "PA",
    "region": null,
    "amenities": "[]",
    "description": null,
    "hours": "{}",
    "image_url": null
  },
  {
    "name": "Cinderlands Beer Co.",
    "brewery_type": "brewpub",
    "street": "3705 Butler St",
    "address_2": null,
    "address_3": null,
    "city": "Pittsburgh",
    "state_province": "Pennsylvania",
    "postal_code": "15201-1819",
    "country": "United States",
    "longitude": -79.9224894,
    "latitude": 40.4884044,
    "phone": "4122510656",
    "website_url": "http://www.cinderlands.com",
    "state": "PA",
    "region": null,
    "amenities": "[]",
    "description": null,
    "hours": "{}",
    "image_url": null
  },
  {
    "name": "Clarion River Brewing Company",
    "brewery_type": "brewpub",
    "street": "600 Main St # 604",
    "address_2": null,
    "address_3": null,
    "city": "Clarion",
    "state_province": "Pennsylvania",
    "postal_code": "16214-1108",
    "country": "United States",
    "longitude": -79.6789283,
    "latitude": 41.14649162,
    "phone": "8142978399",
    "website_url": "http://www.clarionriverbrew.com",
    "state": "PA",
    "region": null,
    "amenities": "[]",
    "description": null,
    "hours": "{}",
    "image_url": null
  },
  {
    "name": "Coal Country Brewing",
    "brewery_type": "micro",
    "street": "625 W High St",
    "address_2": null,
    "address_3": null,
    "city": "Ebensburg",
    "state_province": "Pennsylvania",
    "postal_code": "15931",
    "country": "United States",
    "longitude": -78.730634,
    "latitude": 40.485306,
    "phone": "8144198648",
    "website_url": "http://www.coalcountrybrewing.net",
    "state": "PA",
    "region": null,
    "amenities": "[]",
    "description": null,
    "hours": "{}",
    "image_url": null
  },
  {
    "name": "Coal Tipple Brewery / Kramer Farms",
    "brewery_type": "micro",
    "street": "1905 Steubenville Rike",
    "address_2": null,
    "address_3": null,
    "city": "Burgettstown",
    "state_province": "Pennsylvania",
    "postal_code": "15021",
    "country": "United States",
    "longitude": null,
    "latitude": null,
    "phone": "7248993344",
    "website_url": "http://www.coaltipplebrewery.com",
    "state": "PA",
    "region": null,
    "amenities": "[]",
    "description": null,
    "hours": "{}",
    "image_url": null
  },
  {
    "name": "Cobblehaus Brewing Company",
    "brewery_type": "micro",
    "street": "1021 5th Ave",
    "address_2": null,
    "address_3": null,
    "city": "Coraopolis",
    "state_province": "Pennsylvania",
    "postal_code": "15108-1803",
    "country": "United States",
    "longitude": -80.16333048,
    "latitude": 40.5174116,
    "phone": "4122648000",
    "website_url": "http://www.cobblehauspa.com",
    "state": "PA",
    "region": null,
    "amenities": "[]",
    "description": null,
    "hours": "{}",
    "image_url": null
  },
  {
    "name": "Collusion Tap Works",
    "brewery_type": "brewpub",
    "street": "105 S Howard St",
    "address_2": null,
    "address_3": null,
    "city": "York",
    "state_province": "Pennsylvania",
    "postal_code": "17401-2001",
    "country": "United States",
    "longitude": -76.72393735,
    "latitude": 39.9618357,
    "phone": "7178488400",
    "website_url": "http://www.collusiontapworks.com",
    "state": "PA",
    "region": null,
    "amenities": "[]",
    "description": null,
    "hours": "{}",
    "image_url": null
  },
  {
    "name": "Columbia Kettle Works",
    "brewery_type": "brewpub",
    "street": "40 N 3rd St",
    "address_2": null,
    "address_3": null,
    "city": "Columbia",
    "state_province": "Pennsylvania",
    "postal_code": "17512-1104",
    "country": "United States",
    "longitude": -76.50358705,
    "latitude": 40.03264918,
    "phone": "7173422374",
    "website_url": "http://www.columbiakettleworks.com",
    "state": "PA",
    "region": null,
    "amenities": "[]",
    "description": null,
    "hours": "{}",
    "image_url": null
  },
  {
    "name": "Conny Creek Brewing Co",
    "brewery_type": "micro",
    "street": "4323 Shearsburg Rd",
    "address_2": null,
    "address_3": null,
    "city": "New Kensington",
    "state_province": "Pennsylvania",
    "postal_code": "15068-6845",
    "country": "United States",
    "longitude": null,
    "latitude": null,
    "phone": null,
    "website_url": "http://www.facebook.com/ConnyCreekBrewing/",
    "state": "PA",
    "region": null,
    "amenities": "[]",
    "description": null,
    "hours": "{}",
    "image_url": null
  },
  {
    "name": "Conshohocken Brewing - Bridgeport",
    "brewery_type": "brewpub",
    "street": "3 DeKalb St",
    "address_2": null,
    "address_3": null,
    "city": "Bridgeport",
    "state_province": "Pennsylvania",
    "postal_code": "19405-1074",
    "country": "United States",
    "longitude": -75.3467908,
    "latitude": 40.1057904,
    "phone": null,
    "website_url": "http://www.conshohockenbrewing.com",
    "state": "PA",
    "region": null,
    "amenities": "[]",
    "description": null,
    "hours": "{}",
    "image_url": null
  },
  {
    "name": "Conshohocken Brewing Co.",
    "brewery_type": "brewpub",
    "street": "739 E Elm St Ste B",
    "address_2": null,
    "address_3": null,
    "city": "Conshohocken",
    "state_province": "Pennsylvania",
    "postal_code": "19428-2301",
    "country": "United States",
    "longitude": null,
    "latitude": null,
    "phone": "6108978962",
    "website_url": "http://www.conshohockenbrewing.com",
    "state": "PA",
    "region": null,
    "amenities": "[]",
    "description": null,
    "hours": "{}",
    "image_url": null
  },
  {
    "name": "Conyngham Brewing Company",
    "brewery_type": "micro",
    "street": "309 Main St",
    "address_2": null,
    "address_3": null,
    "city": "Conyngham",
    "state_province": "Pennsylvania",
    "postal_code": "18219-0910",
    "country": "United States",
    "longitude": -76.0585835,
    "latitude": 40.9922807,
    "phone": "5707105752",
    "website_url": "http://www.conynghambrewing.com",
    "state": "PA",
    "region": null,
    "amenities": "[]",
    "description": null,
    "hours": "{}",
    "image_url": null
  },
  {
    "name": "Copper Kettle Brewing Co",
    "brewery_type": "micro",
    "street": "557 Greenfield Ave",
    "address_2": null,
    "address_3": null,
    "city": "Pittsburgh",
    "state_province": "Pennsylvania",
    "postal_code": "15207-1093",
    "country": "United States",
    "longitude": -79.94040826,
    "latitude": 40.42611867,
    "phone": null,
    "website_url": null,
    "state": "PA",
    "region": null,
    "amenities": "[]",
    "description": null,
    "hours": "{}",
    "image_url": null
  },
  {
    "name": "CoStar Brewing Inc.",
    "brewery_type": "micro",
    "street": "919 N Saint Clair St",
    "address_2": null,
    "address_3": null,
    "city": "Pittsburgh",
    "state_province": "Pennsylvania",
    "postal_code": "15206-2133",
    "country": "United States",
    "longitude": -79.9232026,
    "latitude": 40.4726062,
    "phone": null,
    "website_url": null,
    "state": "PA",
    "region": null,
    "amenities": "[]",
    "description": null,
    "hours": "{}",
    "image_url": null
  },
  {
    "name": "Couch Brewery",
    "brewery_type": "micro",
    "street": "1351 Washington Blvd",
    "address_2": null,
    "address_3": null,
    "city": "Pittsburgh",
    "state_province": "Pennsylvania",
    "postal_code": "15206-1801",
    "country": "United States",
    "longitude": -79.9090141,
    "latitude": 40.4695304,
    "phone": "4124411724",
    "website_url": "http://www.couchbrewery.com",
    "state": "PA",
    "region": null,
    "amenities": "[]",
    "description": null,
    "hours": "{}",
    "image_url": null
  },
  {
    "name": "Covered Bridge Brewhaus Taproom",
    "brewery_type": "micro",
    "street": "506 N 8th St",
    "address_2": null,
    "address_3": null,
    "city": "Shamokin",
    "state_province": "Pennsylvania",
    "postal_code": "17872-5302",
    "country": "United States",
    "longitude": -76.55682084,
    "latitude": 40.79076037,
    "phone": "5702054867",
    "website_url": "http://squareup.com/store/covered-bridge-brewhaus",
    "state": "PA",
    "region": null,
    "amenities": "[]",
    "description": null,
    "hours": "{}",
    "image_url": null
  },
  {
    "name": "CR Brewing Company",
    "brewery_type": "brewpub",
    "street": "3009 Wilmington Rd",
    "address_2": null,
    "address_3": null,
    "city": "New Castle",
    "state_province": "Pennsylvania",
    "postal_code": "16105",
    "country": "United States",
    "longitude": -80.3493196,
    "latitude": 41.0103937,
    "phone": "4122987053",
    "website_url": "http://www.crbrewingcompany.com",
    "state": "PA",
    "region": null,
    "amenities": "[]",
    "description": null,
    "hours": "{}",
    "image_url": null
  },
  {
    "name": "Crime & Punishment Brewing Company",
    "brewery_type": "brewpub",
    "street": "2711 W Girard Ave",
    "address_2": null,
    "address_3": null,
    "city": "Philadelphia",
    "state_province": "Pennsylvania",
    "postal_code": "19130-1212",
    "country": "United States",
    "longitude": -75.1808422,
    "latitude": 39.9743646,
    "phone": "2152352739",
    "website_url": "http://www.crimeandpunishmentbrewery.com",
    "state": "PA",
    "region": null,
    "amenities": "[]",
    "description": null,
    "hours": "{}",
    "image_url": null
  },
  {
    "name": "Crooked Eye Brewery",
    "brewery_type": "micro",
    "street": "13 E Montgomery Ave Ste 2",
    "address_2": null,
    "address_3": null,
    "city": "Hatboro",
    "state_province": "Pennsylvania",
    "postal_code": "19040-2618",
    "country": "United States",
    "longitude": null,
    "latitude": null,
    "phone": "2152859253",
    "website_url": "http://crookedeyebrewery.com",
    "state": "PA",
    "region": null,
    "amenities": "[]",
    "description": null,
    "hours": "{}",
    "image_url": null
  },
  {
    "name": "Crooked Tongue Brewing",
    "brewery_type": "micro",
    "street": "2516 Benjamin Franklin Hwy",
    "address_2": null,
    "address_3": null,
    "city": "Edinburg",
    "state_province": "Pennsylvania",
    "postal_code": "16116-4302",
    "country": "United States",
    "longitude": null,
    "latitude": null,
    "phone": "7248563765",
    "website_url": "http://www.crookedtonguebrewing.com",
    "state": "PA",
    "region": null,
    "amenities": "[]",
    "description": null,
    "hours": "{}",
    "image_url": null
  },
  {
    "name": "Crowded Castle Brewing Co. Inc.",
    "brewery_type": "brewpub",
    "street": "242 Bridge St",
    "address_2": null,
    "address_3": null,
    "city": "Phoenixville",
    "state_province": "Pennsylvania",
    "postal_code": "19460-3450",
    "country": "United States",
    "longitude": -75.51762814,
    "latitude": 40.13370414,
    "phone": "4842520077",
    "website_url": "http://www.crowdedcastle.com",
    "state": "PA",
    "region": null,
    "amenities": "[]",
    "description": null,
    "hours": "{}",
    "image_url": null
  },
  {
    "name": "Crystal Ball Brewing",
    "brewery_type": "micro",
    "street": "1612 W King St",
    "address_2": null,
    "address_3": null,
    "city": "York",
    "state_province": "Pennsylvania",
    "postal_code": "17404-5618",
    "country": "United States",
    "longitude": -76.76273652,
    "latitude": 39.94891984,
    "phone": null,
    "website_url": "http://www.crystalballbrewing.com",
    "state": "PA",
    "region": null,
    "amenities": "[]",
    "description": null,
    "hours": "{}",
    "image_url": null
  },
  {
    "name": "Curran Brewing Co",
    "brewery_type": "micro",
    "street": "6230 Bloomington Rd",
    "address_2": null,
    "address_3": null,
    "city": "Moscow",
    "state_province": "Pennsylvania",
    "postal_code": "18444-6634",
    "country": "United States",
    "longitude": null,
    "latitude": null,
    "phone": "5707959490",
    "website_url": "http://www.curranbrewing.com",
    "state": "PA",
    "region": null,
    "amenities": "[]",
    "description": null,
    "hours": "{}",
    "image_url": null
  },
  {
    "name": "D. G. Yuengling and Son Inc",
    "brewery_type": "regional",
    "street": "500 Mahantongo St",
    "address_2": null,
    "address_3": null,
    "city": "Pottsville",
    "state_province": "Pennsylvania",
    "postal_code": "17901",
    "country": "United States",
    "longitude": -76.198585,
    "latitude": 40.682674,
    "phone": "5706224141",
    "website_url": "http://www.yuengling.com",
    "state": "PA",
    "region": null,
    "amenities": "[]",
    "description": null,
    "hours": "{}",
    "image_url": null
  },
  {
    "name": "D. G. Yuengling and Son Inc",
    "brewery_type": "regional",
    "street": "310 Mill Creek Ave",
    "address_2": null,
    "address_3": null,
    "city": "Pottsville",
    "state_province": "Pennsylvania",
    "postal_code": "17901-8692",
    "country": "United States",
    "longitude": -76.1832368,
    "latitude": 40.6982044,
    "phone": "2156319461",
    "website_url": "http://www.yuengling.com",
    "state": "PA",
    "region": null,
    "amenities": "[]",
    "description": null,
    "hours": "{}",
    "image_url": null
  },
  {
    "name": "Dancing Gnome Beer",
    "brewery_type": "micro",
    "street": "925 Main St",
    "address_2": null,
    "address_3": null,
    "city": "Pittsburgh",
    "state_province": "Pennsylvania",
    "postal_code": "15215-2301",
    "country": "United States",
    "longitude": -79.84116859,
    "latitude": 40.39862051,
    "phone": "4124082083",
    "website_url": "http://www.dancinggnomebeer.com",
    "state": "PA",
    "region": null,
    "amenities": "[]",
    "description": null,
    "hours": "{}",
    "image_url": null
  },
  {
    "name": "Daugherty Brewing Company",
    "brewery_type": "planning",
    "street": null,
    "address_2": null,
    "address_3": null,
    "city": "Erie",
    "state_province": "Pennsylvania",
    "postal_code": "16510-3680",
    "country": "United States",
    "longitude": null,
    "latitude": null,
    "phone": null,
    "website_url": "http://www.daughertybrewingcompany.com",
    "state": "PA",
    "region": null,
    "amenities": "[]",
    "description": null,
    "hours": "{}",
    "image_url": null
  },
  {
    "name": "Depot Saloon",
    "brewery_type": "brewpub",
    "street": "9 S Race St",
    "address_2": null,
    "address_3": null,
    "city": "Greenville",
    "state_province": "Pennsylvania",
    "postal_code": "16125-2213",
    "country": "United States",
    "longitude": -80.390239,
    "latitude": 41.40444,
    "phone": "7245884201",
    "website_url": "http://www.depotsaloon.com",
    "state": "PA",
    "region": null,
    "amenities": "[]",
    "description": null,
    "hours": "{}",
    "image_url": null
  },
  {
    "name": "Desperate Times Brewing Co",
    "brewery_type": "brewpub",
    "street": "1201 Carlisle Springs Rd",
    "address_2": null,
    "address_3": null,
    "city": "Carlisle",
    "state_province": "Pennsylvania",
    "postal_code": "17013-1554",
    "country": "United States",
    "longitude": -77.187054,
    "latitude": 40.213096,
    "phone": "7177063192",
    "website_url": "http://www.desperatetimesbrewery.com",
    "state": "PA",
    "region": null,
    "amenities": "[]",
    "description": null,
    "hours": "{}",
    "image_url": null
  },
  {
    "name": "Devout Brewing",
    "brewery_type": "planning",
    "street": null,
    "address_2": null,
    "address_3": null,
    "city": "Export",
    "state_province": "Pennsylvania",
    "postal_code": "15632",
    "country": "United States",
    "longitude": null,
    "latitude": null,
    "phone": null,
    "website_url": "http://www.devoutbrewingco.com",
    "state": "PA",
    "region": null,
    "amenities": "[]",
    "description": null,
    "hours": "{}",
    "image_url": null
  },
  {
    "name": "Divine Swine BBQ",
    "brewery_type": "brewpub",
    "street": "2684 Lebanon Rd",
    "address_2": null,
    "address_3": null,
    "city": "Manheim",
    "state_province": "Pennsylvania",
    "postal_code": "17545-9524",
    "country": "United States",
    "longitude": null,
    "latitude": null,
    "phone": "7178799494",
    "website_url": "http://www.divine-swine-bbq.com",
    "state": "PA",
    "region": null,
    "amenities": "[]",
    "description": null,
    "hours": "{}",
    "image_url": null
  },
  {
    "name": "Doc G's Brewing Company",
    "brewery_type": "brewpub",
    "street": "208 W Long Ave",
    "address_2": null,
    "address_3": null,
    "city": "Du Bois",
    "state_province": "Pennsylvania",
    "postal_code": "15801-2106",
    "country": "United States",
    "longitude": null,
    "latitude": null,
    "phone": "8142997938",
    "website_url": null,
    "state": "PA",
    "region": null,
    "amenities": "[]",
    "description": null,
    "hours": "{}",
    "image_url": null
  },
  {
    "name": "Dock Street Brewery",
    "brewery_type": "brewpub",
    "street": "701 S 50th St Fl 1",
    "address_2": null,
    "address_3": null,
    "city": "Philadelphia",
    "state_province": "Pennsylvania",
    "postal_code": "19143-1689",
    "country": "United States",
    "longitude": null,
    "latitude": null,
    "phone": "2157262337",
    "website_url": "http://www.dockstreetbeer.com",
    "state": "PA",
    "region": null,
    "amenities": "[]",
    "description": null,
    "hours": "{}",
    "image_url": null
  },
  {
    "name": "Dock Street Brewing Co",
    "brewery_type": "planning",
    "street": null,
    "address_2": null,
    "address_3": null,
    "city": "Philadelphia",
    "state_province": "Pennsylvania",
    "postal_code": "19146",
    "country": "United States",
    "longitude": null,
    "latitude": null,
    "phone": null,
    "website_url": null,
    "state": "PA",
    "region": null,
    "amenities": "[]",
    "description": null,
    "hours": "{}",
    "image_url": null
  },
  {
    "name": "Double D Brewing / Dommy's Pizza",
    "brewery_type": "brewpub",
    "street": "1100 Hancock Ave",
    "address_2": null,
    "address_3": null,
    "city": "Vandergrift",
    "state_province": "Pennsylvania",
    "postal_code": "15690-2061",
    "country": "United States",
    "longitude": -79.57625,
    "latitude": 40.588461,
    "phone": "7245676789",
    "website_url": "http://dommyspizza.com",
    "state": "PA",
    "region": null,
    "amenities": "[]",
    "description": null,
    "hours": "{}",
    "image_url": null
  },
  {
    "name": "Doylestown Brewing Co",
    "brewery_type": "proprietor",
    "street": "52 East State St.",
    "address_2": null,
    "address_3": null,
    "city": "Doylestown",
    "state_province": "Pennsylvania",
    "postal_code": "18901",
    "country": "United States",
    "longitude": -75.1291116,
    "latitude": 40.31027305,
    "phone": "2153401414",
    "website_url": null,
    "state": "PA",
    "region": null,
    "amenities": "[]",
    "description": null,
    "hours": "{}",
    "image_url": null
  },
  {
    "name": "Duquesne Brewing of Pittsburgh",
    "brewery_type": "contract",
    "street": "932 W North Ave",
    "address_2": null,
    "address_3": null,
    "city": "Pittsburgh",
    "state_province": "Pennsylvania",
    "postal_code": "15233-1606",
    "country": "United States",
    "longitude": -80.01790691,
    "latitude": 40.45346755,
    "phone": "4128312779",
    "website_url": null,
    "state": "PA",
    "region": null,
    "amenities": "[]",
    "description": null,
    "hours": "{}",
    "image_url": null
  },
  {
    "name": "Earth Bread + Brewery",
    "brewery_type": "brewpub",
    "street": "7136 Germantown Ave",
    "address_2": null,
    "address_3": null,
    "city": "Philadelphia",
    "state_province": "Pennsylvania",
    "postal_code": "19119-1843",
    "country": "United States",
    "longitude": -75.1903546,
    "latitude": 40.0591996,
    "phone": "2152426666",
    "website_url": "http://www.earthbreadbrewery.com",
    "state": "PA",
    "region": null,
    "amenities": "[]",
    "description": null,
    "hours": "{}",
    "image_url": null
  },
  {
    "name": "East Branch Brewing Company",
    "brewery_type": "brewpub",
    "street": "202 E Lancaster Ave",
    "address_2": null,
    "address_3": null,
    "city": "Downingtown",
    "state_province": "Pennsylvania",
    "postal_code": "19335-2957",
    "country": "United States",
    "longitude": -75.70076097,
    "latitude": 40.0067258,
    "phone": "6102831989",
    "website_url": "http://www.eastbranchbrewing.com",
    "state": "PA",
    "region": null,
    "amenities": "[]",
    "description": null,
    "hours": "{}",
    "image_url": null
  },
  {
    "name": "East End Brewing Co",
    "brewery_type": "micro",
    "street": "147 Julius St",
    "address_2": null,
    "address_3": null,
    "city": "Pittsburgh",
    "state_province": "Pennsylvania",
    "postal_code": "15206",
    "country": "United States",
    "longitude": -79.91162696,
    "latitude": 40.45891137,
    "phone": "4125372337",
    "website_url": "http://www.eastendbrewing.com",
    "state": "PA",
    "region": null,
    "amenities": "[]",
    "description": null,
    "hours": "{}",
    "image_url": null
  },
  {
    "name": "Eclipse Craft Brewing",
    "brewery_type": "planning",
    "street": null,
    "address_2": null,
    "address_3": null,
    "city": "Sunbury",
    "state_province": "Pennsylvania",
    "postal_code": "17801-5337",
    "country": "United States",
    "longitude": null,
    "latitude": null,
    "phone": null,
    "website_url": "http://curtisbenner@hotmail.com",
    "state": "PA",
    "region": null,
    "amenities": "[]",
    "description": null,
    "hours": "{}",
    "image_url": null
  },
  {
    "name": "Eleventh Hour Brewing Co",
    "brewery_type": "micro",
    "street": "3711 Charlotte St",
    "address_2": null,
    "address_3": null,
    "city": "Pittsburgh",
    "state_province": "Pennsylvania",
    "postal_code": "15201-3201",
    "country": "United States",
    "longitude": -79.96553317,
    "latitude": 40.46680403,
    "phone": "4127165107",
    "website_url": "http://www.11thhourbrews.com",
    "state": "PA",
    "region": null,
    "amenities": "[]",
    "description": null,
    "hours": "{}",
    "image_url": null
  },
  {
    "name": "Elk Creek Cafe + Aleworks",
    "brewery_type": "brewpub",
    "street": "100 W Main St",
    "address_2": null,
    "address_3": null,
    "city": "Millheim",
    "state_province": "Pennsylvania",
    "postal_code": "16854",
    "country": "United States",
    "longitude": -77.47694623,
    "latitude": 40.8911574,
    "phone": "8143498850",
    "website_url": "http://www.elkcreekcafe.net",
    "state": "PA",
    "region": null,
    "amenities": "[]",
    "description": null,
    "hours": "{}",
    "image_url": null
  },
  {
    "name": "Endless Brewing",
    "brewery_type": "micro",
    "street": "20610 Pa-29",
    "address_2": null,
    "address_3": null,
    "city": "Montrose",
    "state_province": "Pennsylvania",
    "postal_code": "18801",
    "country": "United States",
    "longitude": null,
    "latitude": null,
    "phone": "5709670985",
    "website_url": "http://www.endlessbrewing.com",
    "state": "PA",
    "region": null,
    "amenities": "[]",
    "description": null,
    "hours": "{}",
    "image_url": null
  },
  {
    "name": "Erie Ale Works",
    "brewery_type": "micro",
    "street": "416 W 12th St",
    "address_2": null,
    "address_3": null,
    "city": "Erie",
    "state_province": "Pennsylvania",
    "postal_code": "16501-1506",
    "country": "United States",
    "longitude": -80.1219366,
    "latitude": 42.108963,
    "phone": "8143149089",
    "website_url": "http://www.eriealeworks.com",
    "state": "PA",
    "region": null,
    "amenities": "[]",
    "description": null,
    "hours": "{}",
    "image_url": null
  },
  {
    "name": "Erie Brewing Co",
    "brewery_type": "micro",
    "street": "6008 Knowledge Pkwy # A",
    "address_2": null,
    "address_3": null,
    "city": "Erie",
    "state_province": "Pennsylvania",
    "postal_code": "16510-4676",
    "country": "United States",
    "longitude": null,
    "latitude": null,
    "phone": "8144597741",
    "website_url": "http://www.eriebrewingco.com",
    "state": "PA",
    "region": null,
    "amenities": "[]",
    "description": null,
    "hours": "{}",
    "image_url": null
  },
  {
    "name": "Ever Grain Brewing Co",
    "brewery_type": "micro",
    "street": "4444 Carlisle Pike Ste C",
    "address_2": null,
    "address_3": null,
    "city": "Camp Hill",
    "state_province": "Pennsylvania",
    "postal_code": "17011-4102",
    "country": "United States",
    "longitude": null,
    "latitude": null,
    "phone": "7175258222",
    "website_url": null,
    "state": "PA",
    "region": null,
    "amenities": "[]",
    "description": null,
    "hours": "{}",
    "image_url": null
  },
  {
    "name": "Evil Genius Beer Co",
    "brewery_type": "micro",
    "street": "1727 N Front St",
    "address_2": null,
    "address_3": null,
    "city": "Philadelphia",
    "state_province": "Pennsylvania",
    "postal_code": "19122-3203",
    "country": "United States",
    "longitude": -75.13401561,
    "latitude": 39.97578018,
    "phone": "2154256820",
    "website_url": "http://www.evilgeniusbeer.com",
    "state": "PA",
    "region": null,
    "amenities": "[]",
    "description": null,
    "hours": "{}",
    "image_url": null
  },
  {
    "name": "Fegley's Brew Works",
    "brewery_type": "brewpub",
    "street": "812 Hamilton St",
    "address_2": null,
    "address_3": null,
    "city": "Allentown",
    "state_province": "Pennsylvania",
    "postal_code": "18101-2437",
    "country": "United States",
    "longitude": -75.4575021,
    "latitude": 40.6060468,
    "phone": null,
    "website_url": null,
    "state": "PA",
    "region": null,
    "amenities": "[]",
    "description": null,
    "hours": "{}",
    "image_url": null
  },
  {
    "name": "Fermentery Form",
    "brewery_type": "micro",
    "street": "161 Cecil B Moore Ave",
    "address_2": null,
    "address_3": null,
    "city": "Philadelphia",
    "state_province": "Pennsylvania",
    "postal_code": "19122-3234",
    "country": "United States",
    "longitude": -75.136886,
    "latitude": 39.976092,
    "phone": "2675183676",
    "website_url": "http://www.fermenteryform.com",
    "state": "PA",
    "region": null,
    "amenities": "[]",
    "description": null,
    "hours": "{}",
    "image_url": null
  },
  {
    "name": "Fetish Brewing Co",
    "brewery_type": "micro",
    "street": "325 Ice Ave",
    "address_2": null,
    "address_3": null,
    "city": "Lancaster",
    "state_province": "Pennsylvania",
    "postal_code": "17602-1930",
    "country": "United States",
    "longitude": -76.30114271,
    "latitude": 40.052413,
    "phone": null,
    "website_url": "http://fetishbrewing.tumblr.com",
    "state": "PA",
    "region": null,
    "amenities": "[]",
    "description": null,
    "hours": "{}",
    "image_url": null
  },
  {
    "name": "Fishtown Brewing Co",
    "brewery_type": "brewpub",
    "street": "1101 Frankford Ave",
    "address_2": null,
    "address_3": null,
    "city": "Philadelphia",
    "state_province": "Pennsylvania",
    "postal_code": "19125-4153",
    "country": "United States",
    "longitude": -75.0159588,
    "latitude": 40.0460129,
    "phone": "2159901396",
    "website_url": "http://fishtownbrewpub.com",
    "state": "PA",
    "region": null,
    "amenities": "[]",
    "description": null,
    "hours": "{}",
    "image_url": null
  },
  {
    "name": "Forest & Main Brewery and Pub",
    "brewery_type": "brewpub",
    "street": "61 N Main St",
    "address_2": null,
    "address_3": null,
    "city": "Ambler",
    "state_province": "Pennsylvania",
    "postal_code": "19002-5728",
    "country": "United States",
    "longitude": -75.2250879,
    "latitude": 40.1553233,
    "phone": "2155421776",
    "website_url": "http://www.forestandmain.com",
    "state": "PA",
    "region": null,
    "amenities": "[]",
    "description": null,
    "hours": "{}",
    "image_url": null
  },
  {
    "name": "Four Seasons Brewing Co",
    "brewery_type": "brewpub",
    "street": "745 Lloyd Ave Ext",
    "address_2": null,
    "address_3": null,
    "city": "Latrobe",
    "state_province": "Pennsylvania",
    "postal_code": "15650",
    "country": "United States",
    "longitude": null,
    "latitude": null,
    "phone": "7245204111",
    "website_url": "http://www.fsbrewing.com",
    "state": "PA",
    "region": null,
    "amenities": "[]",
    "description": null,
    "hours": "{}",
    "image_url": null
  },
  {
    "name": "Free Will Brewing Company",
    "brewery_type": "micro",
    "street": "410 E Walnut St Ste 10",
    "address_2": null,
    "address_3": null,
    "city": "Perkasie",
    "state_province": "Pennsylvania",
    "postal_code": "18944-1683",
    "country": "United States",
    "longitude": null,
    "latitude": null,
    "phone": "2673540813",
    "website_url": "http://www.freewillbrewing.com",
    "state": "PA",
    "region": null,
    "amenities": "[]",
    "description": null,
    "hours": "{}",
    "image_url": null
  },
  {
    "name": "Full Pint Brewing Company",
    "brewery_type": "micro",
    "street": "1963 Lincoln Hwy",
    "address_2": null,
    "address_3": null,
    "city": "North Versailles",
    "state_province": "Pennsylvania",
    "postal_code": "15137-2749",
    "country": "United States",
    "longitude": -79.8261204,
    "latitude": 40.385971,
    "phone": "4124676414",
    "website_url": "http://fullpintbrewing.com",
    "state": "PA",
    "region": null,
    "amenities": "[]",
    "description": null,
    "hours": "{}",
    "image_url": null
  },
  {
    "name": "Funk Brewing Company",
    "brewery_type": "micro",
    "street": "19 S 6th St",
    "address_2": null,
    "address_3": null,
    "city": "Emmaus",
    "state_province": "Pennsylvania",
    "postal_code": "18049-3741",
    "country": "United States",
    "longitude": -75.49501857,
    "latitude": 40.532105,
    "phone": "6104218270",
    "website_url": "http://www.funkbrewing.com",
    "state": "PA",
    "region": null,
    "amenities": "[]",
    "description": null,
    "hours": "{}",
    "image_url": null
  },
  {
    "name": "Fury Brewing Company",
    "brewery_type": "micro",
    "street": "13380 US-30",
    "address_2": null,
    "address_3": null,
    "city": "Irwin",
    "state_province": "Pennsylvania",
    "postal_code": "15642",
    "country": "United States",
    "longitude": -79.7029626,
    "latitude": 40.3248479,
    "phone": "7248265162",
    "website_url": "http://www.furybrewingcompany.com",
    "state": "PA",
    "region": null,
    "amenities": "[]",
    "description": null,
    "hours": "{}",
    "image_url": null
  },
  {
    "name": "GearHouse Brewing Company",
    "brewery_type": "brewpub",
    "street": "253 Grant St",
    "address_2": null,
    "address_3": null,
    "city": "Chambersburg",
    "state_province": "Pennsylvania",
    "postal_code": "17201-1627",
    "country": "United States",
    "longitude": -77.65674215,
    "latitude": 39.9412218,
    "phone": "8034226145",
    "website_url": "http://www.gearhousebrewingco.com",
    "state": "PA",
    "region": null,
    "amenities": "[]",
    "description": null,
    "hours": "{}",
    "image_url": null
  },
  {
    "name": "Geronimo Brewing Inc",
    "brewery_type": "planning",
    "street": null,
    "address_2": null,
    "address_3": null,
    "city": "Doylestown",
    "state_province": "Pennsylvania",
    "postal_code": "18901",
    "country": "United States",
    "longitude": null,
    "latitude": null,
    "phone": null,
    "website_url": "http://www.geronimobrewing.com",
    "state": "PA",
    "region": null,
    "amenities": "[]",
    "description": null,
    "hours": "{}",
    "image_url": null
  },
  {
    "name": "Golden Avalanche Brewing Co",
    "brewery_type": "brewpub",
    "street": "272 W Main St",
    "address_2": null,
    "address_3": null,
    "city": "Kutztown",
    "state_province": "Pennsylvania",
    "postal_code": "19530-1604",
    "country": "United States",
    "longitude": -75.7780207,
    "latitude": 40.5164127,
    "phone": "6106839600",
    "website_url": "http://www.kutztowntavern.com/GoldenAvalancheBrewery",
    "state": "PA",
    "region": null,
    "amenities": "[]",
    "description": null,
    "hours": "{}",
    "image_url": null
  },
  {
    "name": "Goose Island Philadelphia",
    "brewery_type": "brewpub",
    "street": "1002 Canal St",
    "address_2": null,
    "address_3": null,
    "city": "Philadelphia",
    "state_province": "Pennsylvania",
    "postal_code": "19123",
    "country": "United States",
    "longitude": -75.13506341,
    "latitude": 39.9648491,
    "phone": null,
    "website_url": null,
    "state": "PA",
    "region": null,
    "amenities": "[]",
    "description": null,
    "hours": "{}",
    "image_url": null
  },
  {
    "name": "Gravity Ales LLC",
    "brewery_type": "planning",
    "street": null,
    "address_2": null,
    "address_3": null,
    "city": "Swarthmore",
    "state_province": "Pennsylvania",
    "postal_code": "19081-1421",
    "country": "United States",
    "longitude": null,
    "latitude": null,
    "phone": "6105472235",
    "website_url": "http://gravityales.com",
    "state": "PA",
    "region": null,
    "amenities": "[]",
    "description": null,
    "hours": "{}",
    "image_url": null
  },
  {
    "name": "Great Barn Brewery",
    "brewery_type": "micro",
    "street": "12 W Mechanic St",
    "address_2": null,
    "address_3": null,
    "city": "New Hope",
    "state_province": "Pennsylvania",
    "postal_code": "18938",
    "country": "United States",
    "longitude": -74.95077675,
    "latitude": 40.36199585,
    "phone": null,
    "website_url": "http://www.greatbarnbrewery.com",
    "state": "PA",
    "region": null,
    "amenities": "[]",
    "description": null,
    "hours": "{}",
    "image_url": null
  },
  {
    "name": "Grist House Craft Brewery",
    "brewery_type": "micro",
    "street": "10 Sherman St",
    "address_2": null,
    "address_3": null,
    "city": "Pittsburgh",
    "state_province": "Pennsylvania",
    "postal_code": "15209-2728",
    "country": "United States",
    "longitude": null,
    "latitude": null,
    "phone": "4124471442",
    "website_url": "http://www.gristhouse.com",
    "state": "PA",
    "region": null,
    "amenities": "[]",
    "description": null,
    "hours": "{}",
    "image_url": null
  },
  {
    "name": "Gunpowder Falls Brewing Co",
    "brewery_type": "micro",
    "street": "15556 Elm Dr",
    "address_2": null,
    "address_3": null,
    "city": "New Freedom",
    "state_province": "Pennsylvania",
    "postal_code": "17349-9344",
    "country": "United States",
    "longitude": null,
    "latitude": null,
    "phone": "7177590330",
    "website_url": "http://www.gunpowderfallsbrewing.com",
    "state": "PA",
    "region": null,
    "amenities": "[]",
    "description": null,
    "hours": "{}",
    "image_url": null
  },
  {
    "name": "Happy Valley Brewing Company",
    "brewery_type": "brewpub",
    "street": "137 Elmwood St",
    "address_2": null,
    "address_3": null,
    "city": "State College",
    "state_province": "Pennsylvania",
    "postal_code": "16801-6851",
    "country": "United States",
    "longitude": null,
    "latitude": null,
    "phone": null,
    "website_url": null,
    "state": "PA",
    "region": null,
    "amenities": "[]",
    "description": null,
    "hours": "{}",
    "image_url": null
  },
  {
    "name": "Harty Brewing Company",
    "brewery_type": "brewpub",
    "street": "146 Walden Way",
    "address_2": null,
    "address_3": null,
    "city": "Mechanicsburg",
    "state_province": "Pennsylvania",
    "postal_code": "17050-4105",
    "country": "United States",
    "longitude": null,
    "latitude": null,
    "phone": null,
    "website_url": "http://www.hartybrewco.com",
    "state": "PA",
    "region": null,
    "amenities": "[]",
    "description": null,
    "hours": "{}",
    "image_url": null
  },
  {
    "name": "Helicon Brewing",
    "brewery_type": "micro",
    "street": "102 Union Ave",
    "address_2": null,
    "address_3": null,
    "city": "Oakdale",
    "state_province": "Pennsylvania",
    "postal_code": "15071-1328",
    "country": "United States",
    "longitude": -80.1847167,
    "latitude": 40.39628695,
    "phone": "7246934204",
    "website_url": "http://heliconbrewing.com",
    "state": "PA",
    "region": null,
    "amenities": "[]",
    "description": null,
    "hours": "{}",
    "image_url": null
  },
  {
    "name": "Helltown Brewing",
    "brewery_type": "micro",
    "street": "13 Henry C Frick St",
    "address_2": null,
    "address_3": null,
    "city": "Mount Pleasant",
    "state_province": "Pennsylvania",
    "postal_code": "15666-1343",
    "country": "United States",
    "longitude": null,
    "latitude": null,
    "phone": "7245424339",
    "website_url": "http://www.helltownbrewing.com",
    "state": "PA",
    "region": null,
    "amenities": "[]",
    "description": null,
    "hours": "{}",
    "image_url": null
  },
  {
    "name": "Here and Now Brewing Co",
    "brewery_type": "brewpub",
    "street": "645 Main St",
    "address_2": null,
    "address_3": null,
    "city": "Honesdale",
    "state_province": "Pennsylvania",
    "postal_code": "18431-1842",
    "country": "United States",
    "longitude": -75.25482301,
    "latitude": 41.5713476,
    "phone": "5702530700",
    "website_url": "http://hereandnowbrewing.com",
    "state": "PA",
    "region": null,
    "amenities": "[]",
    "description": null,
    "hours": "{}",
    "image_url": null
  },
  {
    "name": "Hidden River Brewing Co",
    "brewery_type": "brewpub",
    "street": "1808 W Schuylkill Rd",
    "address_2": null,
    "address_3": null,
    "city": "Douglassville",
    "state_province": "Pennsylvania",
    "postal_code": "19518-9101",
    "country": "United States",
    "longitude": null,
    "latitude": null,
    "phone": "4842732266",
    "website_url": "http://hiddenriverbrewing.com",
    "state": "PA",
    "region": null,
    "amenities": "[]",
    "description": null,
    "hours": "{}",
    "image_url": null
  },
  {
    "name": "Hidden Stories Brewing Company",
    "brewery_type": "planning",
    "street": null,
    "address_2": null,
    "address_3": null,
    "city": "Millerstown",
    "state_province": "Pennsylvania",
    "postal_code": "17062-8474",
    "country": "United States",
    "longitude": null,
    "latitude": null,
    "phone": "6465524847",
    "website_url": null,
    "state": "PA",
    "region": null,
    "amenities": "[]",
    "description": null,
    "hours": "{}",
    "image_url": null
  },
  {
    "name": "Highway Manor Brewing Co",
    "brewery_type": "micro",
    "street": "2238 Gettysburg Rd",
    "address_2": null,
    "address_3": null,
    "city": "Camp Hill",
    "state_province": "Pennsylvania",
    "postal_code": "17011-7301",
    "country": "United States",
    "longitude": null,
    "latitude": null,
    "phone": "7177430613",
    "website_url": "http://www.HighwayManorBrewing.com",
    "state": "PA",
    "region": null,
    "amenities": "[]",
    "description": null,
    "hours": "{}",
    "image_url": null
  },
  {
    "name": "HiJinx Brewing Co",
    "brewery_type": "micro",
    "street": "905 Harrison St",
    "address_2": null,
    "address_3": null,
    "city": "Allentown",
    "state_province": "Pennsylvania",
    "postal_code": "18103-3188",
    "country": "United States",
    "longitude": -75.47453708,
    "latitude": 40.59343618,
    "phone": null,
    "website_url": null,
    "state": "PA",
    "region": null,
    "amenities": "[]",
    "description": null,
    "hours": "{}",
    "image_url": null
  },
  {
    "name": "Hitchhiker Brewing Co.",
    "brewery_type": "brewpub",
    "street": "190 Castle Shannon Blvd",
    "address_2": null,
    "address_3": null,
    "city": "Pittsburgh",
    "state_province": "Pennsylvania",
    "postal_code": "15228-2267",
    "country": "United States",
    "longitude": null,
    "latitude": null,
    "phone": "4123431950",
    "website_url": "http://www.hitchhikerbrewing.com",
    "state": "PA",
    "region": null,
    "amenities": "[]",
    "description": null,
    "hours": "{}",
    "image_url": null
  },
  {
    "name": "Hofbrauhaus Pittsburgh",
    "brewery_type": "brewpub",
    "street": "2705 S Water St",
    "address_2": null,
    "address_3": null,
    "city": "Pittsburgh",
    "state_province": "Pennsylvania",
    "postal_code": "15203",
    "country": "United States",
    "longitude": -79.9639442,
    "latitude": 40.4279919,
    "phone": "4122242328",
    "website_url": "http://www.hofbrauhauspittsburgh.com",
    "state": "PA",
    "region": null,
    "amenities": "[]",
    "description": null,
    "hours": "{}",
    "image_url": null
  },
  {
    "name": "Hollow Earth Brewing Co",
    "brewery_type": "brewpub",
    "street": "19 N 3rd St",
    "address_2": null,
    "address_3": null,
    "city": "Oxford",
    "state_province": "Pennsylvania",
    "postal_code": "19363-1423",
    "country": "United States",
    "longitude": -75.97857656,
    "latitude": 39.78586182,
    "phone": "6107323959",
    "website_url": "http://www.HollowEarthBrewing.com",
    "state": "PA",
    "region": null,
    "amenities": "[]",
    "description": null,
    "hours": "{}",
    "image_url": null
  },
  {
    "name": "Home Brewing Co Of Pennsylvania",
    "brewery_type": "planning",
    "street": null,
    "address_2": null,
    "address_3": null,
    "city": "Conneaut Lake",
    "state_province": "Pennsylvania",
    "postal_code": "16316",
    "country": "United States",
    "longitude": null,
    "latitude": null,
    "phone": "4128603015",
    "website_url": null,
    "state": "PA",
    "region": null,
    "amenities": "[]",
    "description": null,
    "hours": "{}",
    "image_url": null
  },
  {
    "name": "Hop Farm Brewing Co",
    "brewery_type": "micro",
    "street": "5601 Butler St",
    "address_2": null,
    "address_3": null,
    "city": "Pittsburgh",
    "state_province": "Pennsylvania",
    "postal_code": "15201-2326",
    "country": "United States",
    "longitude": -79.9224894,
    "latitude": 40.4884044,
    "phone": null,
    "website_url": null,
    "state": "PA",
    "region": null,
    "amenities": "[]",
    "description": null,
    "hours": "{}",
    "image_url": null
  },
  {
    "name": "Hop Hill Brewing Company",
    "brewery_type": "micro",
    "street": "1988 Blair Ave",
    "address_2": null,
    "address_3": null,
    "city": "Bethlehem",
    "state_province": "Pennsylvania",
    "postal_code": "18015-5307",
    "country": "United States",
    "longitude": null,
    "latitude": null,
    "phone": "4848930767",
    "website_url": "http://www.hophillbeer.com",
    "state": "PA",
    "region": null,
    "amenities": "[]",
    "description": null,
    "hours": "{}",
    "image_url": null
  },
  {
    "name": "Imperium Brewing",
    "brewery_type": "planning",
    "street": null,
    "address_2": null,
    "address_3": null,
    "city": "Hickory",
    "state_province": "Pennsylvania",
    "postal_code": "15340-1135",
    "country": "United States",
    "longitude": null,
    "latitude": null,
    "phone": "4129991077",
    "website_url": "http://imperiumbrewing.com",
    "state": "PA",
    "region": null,
    "amenities": "[]",
    "description": null,
    "hours": "{}",
    "image_url": null
  },
  {
    "name": "Imprint Beer Company",
    "brewery_type": "micro",
    "street": "1500 Industry Rd Ste O",
    "address_2": null,
    "address_3": null,
    "city": "Hatfield",
    "state_province": "Pennsylvania",
    "postal_code": "19440-3271",
    "country": "United States",
    "longitude": null,
    "latitude": null,
    "phone": "2676403004",
    "website_url": "http://www.imprintbeer.com",
    "state": "PA",
    "region": null,
    "amenities": "[]",
    "description": null,
    "hours": "{}",
    "image_url": null
  },
  {
    "name": "Insurrection Aleworks",
    "brewery_type": "micro",
    "street": "1635 E Railroad St",
    "address_2": null,
    "address_3": null,
    "city": "Heidelberg",
    "state_province": "Pennsylvania",
    "postal_code": "15106-4026",
    "country": "United States",
    "longitude": -80.08755441,
    "latitude": 40.39264014,
    "phone": "4122762030",
    "website_url": "http://insurrectionaleworks.com",
    "state": "PA",
    "region": null,
    "amenities": "[]",
    "description": null,
    "hours": "{}",
    "image_url": null
  },
  {
    "name": "Intercourse Brewing Co",
    "brewery_type": "contract",
    "street": "4166 Ironbridge Dr",
    "address_2": null,
    "address_3": null,
    "city": "Collegeville",
    "state_province": "Pennsylvania",
    "postal_code": "19426-1188",
    "country": "United States",
    "longitude": null,
    "latitude": null,
    "phone": "6108129426",
    "website_url": "http://www.intercoursebrewingco.com",
    "state": "PA",
    "region": null,
    "amenities": "[]",
    "description": null,
    "hours": "{}",
    "image_url": null
  },
  {
    "name": "Iron Hart",
    "brewery_type": "brewpub",
    "street": "49 N Church St",
    "address_2": null,
    "address_3": null,
    "city": "Carbondale",
    "state_province": "Pennsylvania",
    "postal_code": "18407-1904",
    "country": "United States",
    "longitude": -75.50001,
    "latitude": 41.573825,
    "phone": "5702802739",
    "website_url": "http://www.3guysandabeerd.com",
    "state": "PA",
    "region": null,
    "amenities": "[]",
    "description": null,
    "hours": "{}",
    "image_url": null
  },
  {
    "name": "Iron Hill Brewery & Restaurant - Chestnut Hill",
    "brewery_type": "brewpub",
    "street": "8400 Germantown Ave",
    "address_2": null,
    "address_3": null,
    "city": "Philadelphia",
    "state_province": "Pennsylvania",
    "postal_code": "19118-3328",
    "country": "United States",
    "longitude": -75.205095,
    "latitude": 40.075132,
    "phone": "2159485600",
    "website_url": "http://www.ironhillbrewery.com",
    "state": "PA",
    "region": null,
    "amenities": "[]",
    "description": null,
    "hours": "{}",
    "image_url": null
  },
  {
    "name": "Iron Hill Brewery & Restaurant - Huntingdon Valley",
    "brewery_type": "brewpub",
    "street": "785 Huntingdon Pike",
    "address_2": null,
    "address_3": null,
    "city": "Huntingdon Valley",
    "state_province": "Pennsylvania",
    "postal_code": "19006-8362",
    "country": "United States",
    "longitude": -75.0674691,
    "latitude": 40.1192109,
    "phone": null,
    "website_url": "http://www.ironhillbrewery.com",
    "state": "PA",
    "region": null,
    "amenities": "[]",
    "description": null,
    "hours": "{}",
    "image_url": null
  },
  {
    "name": "Iron Hill Brewery & Restaurant - Lancaster",
    "brewery_type": "brewpub",
    "street": "781 Harrisburg Pike",
    "address_2": null,
    "address_3": null,
    "city": "Lancaster",
    "state_province": "Pennsylvania",
    "postal_code": "17603-2655",
    "country": "United States",
    "longitude": -76.3188136,
    "latitude": 40.0506816,
    "phone": "7172919800",
    "website_url": "http://www.ironhillbrewery.com",
    "state": "PA",
    "region": null,
    "amenities": "[]",
    "description": null,
    "hours": "{}",
    "image_url": null
  },
  {
    "name": "Iron Hill Brewery & Restaurant - Media",
    "brewery_type": "brewpub",
    "street": "30 E State Street",
    "address_2": null,
    "address_3": null,
    "city": "Media",
    "state_province": "Pennsylvania",
    "postal_code": "19063-2904",
    "country": "United States",
    "longitude": -75.38831847,
    "latitude": 39.9174642,
    "phone": "6106279000",
    "website_url": "http://www.ironhillbrewery.com",
    "state": "PA",
    "region": null,
    "amenities": "[]",
    "description": null,
    "hours": "{}",
    "image_url": null
  },
  {
    "name": "Iron Hill Brewery & Restaurant - North Wales",
    "brewery_type": "brewpub",
    "street": "1460 Bethlehem Pike",
    "address_2": null,
    "address_3": null,
    "city": "North Wales",
    "state_province": "Pennsylvania",
    "postal_code": "19454-2159",
    "country": "United States",
    "longitude": null,
    "latitude": null,
    "phone": "2677082000",
    "website_url": "http://www.ironhillbrewery.com",
    "state": "PA",
    "region": null,
    "amenities": "[]",
    "description": null,
    "hours": "{}",
    "image_url": null
  },
  {
    "name": "Iron Hill Brewery & Restaurant - Phoenixville",
    "brewery_type": "brewpub",
    "street": "130 Bridge St",
    "address_2": null,
    "address_3": null,
    "city": "Phoenixville",
    "state_province": "Pennsylvania",
    "postal_code": "19460-3448",
    "country": "United States",
    "longitude": -75.51335,
    "latitude": 40.13418,
    "phone": "6109839333",
    "website_url": "http://www.ironhillbrewery.com",
    "state": "PA",
    "region": null,
    "amenities": "[]",
    "description": null,
    "hours": "{}",
    "image_url": null
  },
  {
    "name": "Iron Hill Brewery & Restaurant - West Chester",
    "brewery_type": "brewpub",
    "street": "3 West Gay St",
    "address_2": null,
    "address_3": null,
    "city": "West Chester",
    "state_province": "Pennsylvania",
    "postal_code": "19380-3010",
    "country": "United States",
    "longitude": -75.60564101,
    "latitude": 39.96059635,
    "phone": "6107389600",
    "website_url": "http://www.ironhillbrewery.com",
    "state": "PA",
    "region": null,
    "amenities": "[]",
    "description": null,
    "hours": "{}",
    "image_url": null
  },
  {
    "name": "Iron Hill Brewery & Restaurant (Ardmore)",
    "brewery_type": "brewpub",
    "street": "60 Greenfield Ave",
    "address_2": null,
    "address_3": null,
    "city": "Ardmore",
    "state_province": "Pennsylvania",
    "postal_code": "19003-1204",
    "country": "United States",
    "longitude": -75.29755364,
    "latitude": 40.00854097,
    "phone": "3028882739",
    "website_url": "http://www.ironhillbrewery.com",
    "state": "PA",
    "region": null,
    "amenities": "[]",
    "description": null,
    "hours": "{}",
    "image_url": null
  },
  {
    "name": "Irving Cliff Brewery",
    "brewery_type": "brewpub",
    "street": "2 Chapel St",
    "address_2": null,
    "address_3": null,
    "city": "Honesdale",
    "state_province": "Pennsylvania",
    "postal_code": "18431-2094",
    "country": "United States",
    "longitude": -75.257181,
    "latitude": 41.574806,
    "phone": "5706470644",
    "website_url": "http://www.irvingcliffbrewery.com",
    "state": "PA",
    "region": null,
    "amenities": "[]",
    "description": null,
    "hours": "{}",
    "image_url": null
  },
  {
    "name": "Jam Room Brewing Co",
    "brewery_type": "micro",
    "street": "875 Main St",
    "address_2": null,
    "address_3": null,
    "city": "Newfoundland",
    "state_province": "Pennsylvania",
    "postal_code": "18445-5210",
    "country": "United States",
    "longitude": -75.32415972,
    "latitude": 41.3014372,
    "phone": "5702526122",
    "website_url": "http://www.jamroombrewing.net",
    "state": "PA",
    "region": null,
    "amenities": "[]",
    "description": null,
    "hours": "{}",
    "image_url": null
  },
  {
    "name": "Jigsy's Brewpub & Restaurant",
    "brewery_type": "brewpub",
    "street": "225 N Enola Rd",
    "address_2": null,
    "address_3": null,
    "city": "Enola",
    "state_province": "Pennsylvania",
    "postal_code": "17025-2414",
    "country": "United States",
    "longitude": null,
    "latitude": null,
    "phone": "7177327708",
    "website_url": "http://www.jigsyspizza.com",
    "state": "PA",
    "region": null,
    "amenities": "[]",
    "description": null,
    "hours": "{}",
    "image_url": null
  },
  {
    "name": "JoBoy's Brew Pub",
    "brewery_type": "brewpub",
    "street": "27 E Main St",
    "address_2": null,
    "address_3": null,
    "city": "Lititz",
    "state_province": "Pennsylvania",
    "postal_code": "17543-1926",
    "country": "United States",
    "longitude": -76.3061545,
    "latitude": 40.1571224,
    "phone": "7175688330",
    "website_url": "http://www.joboysbrewpub.com",
    "state": "PA",
    "region": null,
    "amenities": "[]",
    "description": null,
    "hours": "{}",
    "image_url": null
  },
  {
    "name": "Jones Brewing Co",
    "brewery_type": "contract",
    "street": "254 Second Street",
    "address_2": null,
    "address_3": null,
    "city": "Smithton",
    "state_province": "Pennsylvania",
    "postal_code": "15479-0746",
    "country": "United States",
    "longitude": null,
    "latitude": null,
    "phone": null,
    "website_url": "http://www.stoneysbeer.com",
    "state": "PA",
    "region": null,
    "amenities": "[]",
    "description": null,
    "hours": "{}",
    "image_url": null
  },
  {
    "name": "Kegg Brewing Company",
    "brewery_type": "micro",
    "street": "117 Faust Ln",
    "address_2": null,
    "address_3": null,
    "city": "Champion",
    "state_province": "Pennsylvania",
    "postal_code": "15622-2107",
    "country": "United States",
    "longitude": null,
    "latitude": null,
    "phone": "7249722350",
    "website_url": null,
    "state": "PA",
    "region": null,
    "amenities": "[]",
    "description": null,
    "hours": "{}",
    "image_url": null
  },
  {
    "name": "Kennett Brewing Company",
    "brewery_type": "brewpub",
    "street": "109 S Broad St Ste 2",
    "address_2": null,
    "address_3": null,
    "city": "Kennett Square",
    "state_province": "Pennsylvania",
    "postal_code": "19348-3101",
    "country": "United States",
    "longitude": null,
    "latitude": null,
    "phone": "6104440440",
    "website_url": "http://www.kennettbrewingcompany.com",
    "state": "PA",
    "region": null,
    "amenities": "[]",
    "description": null,
    "hours": "{}",
    "image_url": null
  },
  {
    "name": "Kensington Barrel Project",
    "brewery_type": "planning",
    "street": null,
    "address_2": null,
    "address_3": null,
    "city": "Philadelphia",
    "state_province": "Pennsylvania",
    "postal_code": "19134",
    "country": "United States",
    "longitude": null,
    "latitude": null,
    "phone": "16199488705",
    "website_url": "http://www.kensingtonbarrelproject.com",
    "state": "PA",
    "region": null,
    "amenities": "[]",
    "description": null,
    "hours": "{}",
    "image_url": null
  },
  {
    "name": "KNURD Brewing Co",
    "brewery_type": "planning",
    "street": null,
    "address_2": null,
    "address_3": null,
    "city": "Oakmont",
    "state_province": "Pennsylvania",
    "postal_code": "15139-2171",
    "country": "United States",
    "longitude": null,
    "latitude": null,
    "phone": "3045509439",
    "website_url": "http://www.knurdbrewing.com",
    "state": "PA",
    "region": null,
    "amenities": "[]",
    "description": null,
    "hours": "{}",
    "image_url": null
  },
  {
    "name": "Koehler Brewing Co",
    "brewery_type": "micro",
    "street": "231 Park St",
    "address_2": null,
    "address_3": null,
    "city": "Grove City",
    "state_province": "Pennsylvania",
    "postal_code": "16127-2011",
    "country": "United States",
    "longitude": -80.08130057,
    "latitude": 41.16044545,
    "phone": "8335634537",
    "website_url": "http://koehlerbrewingcompany.com",
    "state": "PA",
    "region": null,
    "amenities": "[]",
    "description": null,
    "hours": "{}",
    "image_url": null
  },
  {
    "name": "La Cabra Brewing",
    "brewery_type": "brewpub",
    "street": "642 Lancaster Ave",
    "address_2": null,
    "address_3": null,
    "city": "Berwyn",
    "state_province": "Pennsylvania",
    "postal_code": "19312-1663",
    "country": "United States",
    "longitude": null,
    "latitude": null,
    "phone": "6102407908",
    "website_url": "http://www.lacabrabrewing.com",
    "state": "PA",
    "region": null,
    "amenities": "[]",
    "description": null,
    "hours": "{}",
    "image_url": null
  },
  {
    "name": "Lancaster Brewing Co",
    "brewery_type": "micro",
    "street": "302 N Plum St # 304",
    "address_2": null,
    "address_3": null,
    "city": "Lancaster",
    "state_province": "Pennsylvania",
    "postal_code": "17602-2402",
    "country": "United States",
    "longitude": -76.29853301,
    "latitude": 40.0438635,
    "phone": "7173916258",
    "website_url": "http://www.lancasterbrewing.com",
    "state": "PA",
    "region": null,
    "amenities": "[]",
    "description": null,
    "hours": "{}",
    "image_url": null
  },
  {
    "name": "Laurel Highlands Brewing",
    "brewery_type": "micro",
    "street": "21 Enamel St",
    "address_2": null,
    "address_3": null,
    "city": "Uniontown",
    "state_province": "Pennsylvania",
    "postal_code": "15401-",
    "country": "United States",
    "longitude": -79.71813225,
    "latitude": 39.91008063,
    "phone": "7248805497",
    "website_url": "http://www.laurelhighlandsbrewing.com",
    "state": "PA",
    "region": null,
    "amenities": "[]",
    "description": null,
    "hours": "{}",
    "image_url": null
  },
  {
    "name": "Lavery Brewing Co",
    "brewery_type": "micro",
    "street": "128 W 12th St",
    "address_2": null,
    "address_3": null,
    "city": "Erie",
    "state_province": "Pennsylvania",
    "postal_code": "16501-1750",
    "country": "United States",
    "longitude": -80.1219366,
    "latitude": 42.108963,
    "phone": "8144540405",
    "website_url": "http://www.laverybrewing.com",
    "state": "PA",
    "region": null,
    "amenities": "[]",
    "description": null,
    "hours": "{}",
    "image_url": null
  },
  {
    "name": "Leaning Cask Brewing Co",
    "brewery_type": "micro",
    "street": "850 Pittsburgh St",
    "address_2": null,
    "address_3": null,
    "city": "Springdale",
    "state_province": "Pennsylvania",
    "postal_code": "15144-1623",
    "country": "United States",
    "longitude": -79.77844044,
    "latitude": 40.54126655,
    "phone": "7247157539",
    "website_url": "http://www.leaningcaskbrewing.com",
    "state": "PA",
    "region": null,
    "amenities": "[]",
    "description": null,
    "hours": "{}",
    "image_url": null
  },
  {
    "name": "Lebanon Valley Craft Brewery",
    "brewery_type": "planning",
    "street": null,
    "address_2": null,
    "address_3": null,
    "city": "Lebanon",
    "state_province": "Pennsylvania",
    "postal_code": "17046",
    "country": "United States",
    "longitude": null,
    "latitude": null,
    "phone": "5134048600",
    "website_url": null,
    "state": "PA",
    "region": null,
    "amenities": "[]",
    "description": null,
    "hours": "{}",
    "image_url": null
  },
  {
    "name": "Levante Brewing Company",
    "brewery_type": "micro",
    "street": "208 Carter Dr Ste 2",
    "address_2": null,
    "address_3": null,
    "city": "West Chester",
    "state_province": "Pennsylvania",
    "postal_code": "19382-4500",
    "country": "United States",
    "longitude": null,
    "latitude": null,
    "phone": "4849998761",
    "website_url": "http://levantebrewing.com",
    "state": "PA",
    "region": null,
    "amenities": "[]",
    "description": null,
    "hours": "{}",
    "image_url": null
  },
  {
    "name": "Levity Brewing Co",
    "brewery_type": "brewpub",
    "street": "1380 Wayne Ave Ste A",
    "address_2": null,
    "address_3": null,
    "city": "Indiana",
    "state_province": "Pennsylvania",
    "postal_code": "15701-3544",
    "country": "United States",
    "longitude": null,
    "latitude": null,
    "phone": null,
    "website_url": null,
    "state": "PA",
    "region": null,
    "amenities": "[]",
    "description": null,
    "hours": "{}",
    "image_url": null
  },
  {
    "name": "Lincoln Avenue Brewery",
    "brewery_type": "planning",
    "street": null,
    "address_2": null,
    "address_3": null,
    "city": "Pittsburgh",
    "state_province": "Pennsylvania",
    "postal_code": "15202",
    "country": "United States",
    "longitude": null,
    "latitude": null,
    "phone": "4124274078",
    "website_url": null,
    "state": "PA",
    "region": null,
    "amenities": "[]",
    "description": null,
    "hours": "{}",
    "image_url": null
  },
  {
    "name": "Lindgren Craft Brewery",
    "brewery_type": "planning",
    "street": null,
    "address_2": null,
    "address_3": null,
    "city": "Duncannon",
    "state_province": "Pennsylvania",
    "postal_code": "17020",
    "country": "United States",
    "longitude": null,
    "latitude": null,
    "phone": "7175147884",
    "website_url": null,
    "state": "PA",
    "region": null,
    "amenities": "[]",
    "description": null,
    "hours": "{}",
    "image_url": null
  },
  {
    "name": "Links Brewing Company",
    "brewery_type": "planning",
    "street": null,
    "address_2": null,
    "address_3": null,
    "city": "Pittsburgh",
    "state_province": "Pennsylvania",
    "postal_code": "15212",
    "country": "United States",
    "longitude": null,
    "latitude": null,
    "phone": "4123239774",
    "website_url": null,
    "state": "PA",
    "region": null,
    "amenities": "[]",
    "description": null,
    "hours": "{}",
    "image_url": null
  },
  {
    "name": "Lion Brewery Inc, The",
    "brewery_type": "regional",
    "street": "700 N Pennsylvania Ave",
    "address_2": null,
    "address_3": null,
    "city": "Wilkes Barre",
    "state_province": "Pennsylvania",
    "postal_code": "18705-2451",
    "country": "United States",
    "longitude": -75.859363,
    "latitude": 41.254896,
    "phone": "5708238801",
    "website_url": "http://www.lionbrewery.com",
    "state": "PA",
    "region": null,
    "amenities": "[]",
    "description": null,
    "hours": "{}",
    "image_url": null
  },
  {
    "name": "Liquid Hero Brewery",
    "brewery_type": "micro",
    "street": "50 E North St",
    "address_2": null,
    "address_3": null,
    "city": "York",
    "state_province": "Pennsylvania",
    "postal_code": "17401-2421",
    "country": "United States",
    "longitude": -76.74375254,
    "latitude": 39.95854203,
    "phone": "7178149250",
    "website_url": "http://www.liquidhero.com",
    "state": "PA",
    "region": null,
    "amenities": "[]",
    "description": null,
    "hours": "{}",
    "image_url": null
  },
  {
    "name": "Locust Lane Craft Brewery",
    "brewery_type": "micro",
    "street": "50 Three Tun Rd Ste 4",
    "address_2": null,
    "address_3": null,
    "city": "Malvern",
    "state_province": "Pennsylvania",
    "postal_code": "19355-3988",
    "country": "United States",
    "longitude": null,
    "latitude": null,
    "phone": "4843244141",
    "website_url": "http://www.locustlanecraftbrewery.com",
    "state": "PA",
    "region": null,
    "amenities": "[]",
    "description": null,
    "hours": "{}",
    "image_url": null
  },
  {
    "name": "Lost Tavern Brewing",
    "brewery_type": "micro",
    "street": "782 Main St",
    "address_2": null,
    "address_3": null,
    "city": "Hellertown",
    "state_province": "Pennsylvania",
    "postal_code": "18055-1540",
    "country": "United States",
    "longitude": -75.3411606,
    "latitude": 40.5809687,
    "phone": "4848513980",
    "website_url": "http://www.losttavernbrewing.com",
    "state": "PA",
    "region": null,
    "amenities": "[]",
    "description": null,
    "hours": "{}",
    "image_url": null
  },
  {
    "name": "Loud Brewing Company",
    "brewery_type": "planning",
    "street": null,
    "address_2": null,
    "address_3": null,
    "city": "Duncannon",
    "state_province": "Pennsylvania",
    "postal_code": "17020-1201",
    "country": "United States",
    "longitude": null,
    "latitude": null,
    "phone": "7173190021",
    "website_url": null,
    "state": "PA",
    "region": null,
    "amenities": "[]",
    "description": null,
    "hours": "{}",
    "image_url": null
  },
  {
    "name": "Love City Brewing Company",
    "brewery_type": "micro",
    "street": "1016 Buttonwood St",
    "address_2": null,
    "address_3": null,
    "city": "Philadelphia",
    "state_province": "Pennsylvania",
    "postal_code": "19123-3703",
    "country": "United States",
    "longitude": -75.15509414,
    "latitude": 39.96067782,
    "phone": null,
    "website_url": "http://www.lovecitybrewing.com",
    "state": "PA",
    "region": null,
    "amenities": "[]",
    "description": null,
    "hours": "{}",
    "image_url": null
  },
  {
    "name": "Lydian Stone Brewery",
    "brewery_type": "micro",
    "street": "685 York Haven Rd",
    "address_2": null,
    "address_3": null,
    "city": "York Haven",
    "state_province": "Pennsylvania",
    "postal_code": "17370-9006",
    "country": "United States",
    "longitude": -76.7157289,
    "latitude": 40.0944263,
    "phone": "7173846055",
    "website_url": "http://www.lydianstonebrewing.com",
    "state": "PA",
    "region": null,
    "amenities": "[]",
    "description": null,
    "hours": "{}",
    "image_url": null
  },
  {
    "name": "Mad Chef Craft Brewing",
    "brewery_type": "brewpub",
    "street": "2023 Miller Rd",
    "address_2": null,
    "address_3": null,
    "city": "East Petersburg",
    "state_province": "Pennsylvania",
    "postal_code": "17520-1624",
    "country": "United States",
    "longitude": -76.3496026,
    "latitude": 40.09366985,
    "phone": "7172836469",
    "website_url": "http://www.madchefcraftbrewing.com",
    "state": "PA",
    "region": null,
    "amenities": "[]",
    "description": null,
    "hours": "{}",
    "image_url": null
  },
  {
    "name": "Mad Princes Brewing",
    "brewery_type": "micro",
    "street": "2537 Bogarts Tavern Rd",
    "address_2": null,
    "address_3": null,
    "city": "Buckingham",
    "state_province": "Pennsylvania",
    "postal_code": "18902",
    "country": "United States",
    "longitude": -75.0613301,
    "latitude": 40.32438895,
    "phone": "2676146104",
    "website_url": null,
    "state": "PA",
    "region": null,
    "amenities": "[]",
    "description": null,
    "hours": "{}",
    "image_url": null
  },
  {
    "name": "Mad-K Brewery",
    "brewery_type": "micro",
    "street": "298 Mountain Top Rd",
    "address_2": null,
    "address_3": null,
    "city": "Howard",
    "state_province": "Pennsylvania",
    "postal_code": "16841-2627",
    "country": "United States",
    "longitude": null,
    "latitude": null,
    "phone": "5702951842",
    "website_url": "http://www.mad-kbrews.com",
    "state": "PA",
    "region": null,
    "amenities": "[]",
    "description": null,
    "hours": "{}",
    "image_url": null
  },
  {
    "name": "Manayunk Brewing Co & Restaurant",
    "brewery_type": "brewpub",
    "street": "4120 Main St",
    "address_2": null,
    "address_3": null,
    "city": "Philadelphia",
    "state_province": "Pennsylvania",
    "postal_code": "19127-1618",
    "country": "United States",
    "longitude": -75.2189308,
    "latitude": 40.0223235,
    "phone": "2154828220",
    "website_url": "http://www.manayunkbrewery.com",
    "state": "PA",
    "region": null,
    "amenities": "[]",
    "description": null,
    "hours": "{}",
    "image_url": null
  },
  {
    "name": "Market Cross Pub & Brewery",
    "brewery_type": "micro",
    "street": "113 N Hanover St",
    "address_2": null,
    "address_3": null,
    "city": "Carlisle",
    "state_province": "Pennsylvania",
    "postal_code": "17013-2422",
    "country": "United States",
    "longitude": -77.18872886,
    "latitude": 40.20335743,
    "phone": "7172581234",
    "website_url": "http://www.marketcrosspub.com",
    "state": "PA",
    "region": null,
    "amenities": "[]",
    "description": null,
    "hours": "{}",
    "image_url": null
  },
  {
    "name": "Marley's Brewery",
    "brewery_type": "brewpub",
    "street": "1323 Columbia Blvd",
    "address_2": null,
    "address_3": null,
    "city": "Bloomsburg",
    "state_province": "Pennsylvania",
    "postal_code": "17815-8860",
    "country": "United States",
    "longitude": -76.4477386,
    "latitude": 41.0013964,
    "phone": "5707849600",
    "website_url": "http://www.marleysbrewery.com",
    "state": "PA",
    "region": null,
    "amenities": "[]",
    "description": null,
    "hours": "{}",
    "image_url": null
  },
  {
    "name": "Marzoni's Brick Oven and Brewery",
    "brewery_type": "brewpub",
    "street": "165 Patch Way Rd",
    "address_2": null,
    "address_3": null,
    "city": "Duncansville",
    "state_province": "Pennsylvania",
    "postal_code": "16635-8431",
    "country": "United States",
    "longitude": null,
    "latitude": null,
    "phone": "8146951300",
    "website_url": "http://www.marzonis.com",
    "state": "PA",
    "region": null,
    "amenities": "[]",
    "description": null,
    "hours": "{}",
    "image_url": null
  },
  {
    "name": "McKenzie Brew House",
    "brewery_type": "brewpub",
    "street": "451 Wilmington Pike - W Chester Pike",
    "address_2": null,
    "address_3": null,
    "city": "Glen Mills",
    "state_province": "Pennsylvania",
    "postal_code": "19342-1249",
    "country": "United States",
    "longitude": null,
    "latitude": null,
    "phone": "6103619800",
    "website_url": "http://www.mckenziebrewhouse.com",
    "state": "PA",
    "region": null,
    "amenities": "[]",
    "description": null,
    "hours": "{}",
    "image_url": null
  },
  {
    "name": "McKenzie Brew House (#2)",
    "brewery_type": "brewpub",
    "street": "240 Lancaster Ave",
    "address_2": null,
    "address_3": null,
    "city": "Malvern",
    "state_province": "Pennsylvania",
    "postal_code": "19355-1802",
    "country": "United States",
    "longitude": null,
    "latitude": null,
    "phone": "6102962222",
    "website_url": "http://www.mckenziebrewhouse.com",
    "state": "PA",
    "region": null,
    "amenities": "[]",
    "description": null,
    "hours": "{}",
    "image_url": null
  },
  {
    "name": "McKenzie Brew House (#3)",
    "brewery_type": "brewpub",
    "street": "324 W Swedesford Rd",
    "address_2": null,
    "address_3": null,
    "city": "Berwyn",
    "state_province": "Pennsylvania",
    "postal_code": "19312-1165",
    "country": "United States",
    "longitude": null,
    "latitude": null,
    "phone": "6103619800",
    "website_url": null,
    "state": "PA",
    "region": null,
    "amenities": "[]",
    "description": null,
    "hours": "{}",
    "image_url": null
  },
  {
    "name": "Mechanistic Brewing",
    "brewery_type": "planning",
    "street": null,
    "address_2": null,
    "address_3": null,
    "city": "Clarion",
    "state_province": "Pennsylvania",
    "postal_code": "16214-2018",
    "country": "United States",
    "longitude": null,
    "latitude": null,
    "phone": null,
    "website_url": null,
    "state": "PA",
    "region": null,
    "amenities": "[]",
    "description": null,
    "hours": "{}",
    "image_url": null
  },
  {
    "name": "Mexitaly Brick Oven Brewhouse",
    "brewery_type": "brewpub",
    "street": "2440 E Market St",
    "address_2": null,
    "address_3": null,
    "city": "York",
    "state_province": "Pennsylvania",
    "postal_code": "17402-2409",
    "country": "United States",
    "longitude": -76.6781639,
    "latitude": 39.9735865,
    "phone": "7176008226",
    "website_url": "http://www.mexitaly.com",
    "state": "PA",
    "region": null,
    "amenities": "[]",
    "description": null,
    "hours": "{}",
    "image_url": null
  },
  {
    "name": "Millcreek Brewing Company",
    "brewery_type": "brewpub",
    "street": "4102 W Lake Rd",
    "address_2": null,
    "address_3": null,
    "city": "Erie",
    "state_province": "Pennsylvania",
    "postal_code": "16505-1561",
    "country": "United States",
    "longitude": -80.3312655,
    "latitude": 42.029976,
    "phone": "8146162739",
    "website_url": "http://www.millcreekbrew.com",
    "state": "PA",
    "region": null,
    "amenities": "[]",
    "description": null,
    "hours": "{}",
    "image_url": null
  },
  {
    "name": "Mindful Brewing Company",
    "brewery_type": "brewpub",
    "street": "3759 Library Rd",
    "address_2": null,
    "address_3": null,
    "city": "Castle Shannon",
    "state_province": "Pennsylvania",
    "postal_code": "15234-2232",
    "country": "United States",
    "longitude": -80.02163298,
    "latitude": 40.36441782,
    "phone": "4126683857",
    "website_url": "http://Www.mindfulbrewing.com",
    "state": "PA",
    "region": null,
    "amenities": "[]",
    "description": null,
    "hours": "{}",
    "image_url": null
  },
  {
    "name": "Miscreation Brewing Company",
    "brewery_type": "brewpub",
    "street": "6 Center Sq",
    "address_2": null,
    "address_3": null,
    "city": "Hanover",
    "state_province": "Pennsylvania",
    "postal_code": "17331-3001",
    "country": "United States",
    "longitude": null,
    "latitude": null,
    "phone": "7176983666",
    "website_url": "http://www.miscreationbrewing.com",
    "state": "PA",
    "region": null,
    "amenities": "[]",
    "description": null,
    "hours": "{}",
    "image_url": null
  },
  {
    "name": "Missing Links Brewery",
    "brewery_type": "brewpub",
    "street": "891 Evans City Rd",
    "address_2": null,
    "address_3": null,
    "city": "Renfrew",
    "state_province": "Pennsylvania",
    "postal_code": "16053-9209",
    "country": "United States",
    "longitude": null,
    "latitude": null,
    "phone": "7249962948",
    "website_url": "http://www.missinglinksbrewery.com",
    "state": "PA",
    "region": null,
    "amenities": "[]",
    "description": null,
    "hours": "{}",
    "image_url": null
  },
  {
    "name": "Molly Pitcher Brewing Co",
    "brewery_type": "micro",
    "street": "10 E South St",
    "address_2": null,
    "address_3": null,
    "city": "Carlisle",
    "state_province": "Pennsylvania",
    "postal_code": "17013-3426",
    "country": "United States",
    "longitude": -77.1890465,
    "latitude": 40.1982144,
    "phone": "7176090969",
    "website_url": "http://www.mollypitcher.com",
    "state": "PA",
    "region": null,
    "amenities": "[]",
    "description": null,
    "hours": "{}",
    "image_url": null
  },
  {
    "name": "Moo-Duck Brewery",
    "brewery_type": "brewpub",
    "street": "79 S Wilson Ave",
    "address_2": null,
    "address_3": null,
    "city": "Elizabethtown",
    "state_province": "Pennsylvania",
    "postal_code": "17022-2166",
    "country": "United States",
    "longitude": -76.61161117,
    "latitude": 40.1473526,
    "phone": null,
    "website_url": "http://www.mooduckbrewery.com",
    "state": "PA",
    "region": null,
    "amenities": "[]",
    "description": null,
    "hours": "{}",
    "image_url": null
  },
  {
    "name": "Mortals Key Brewing Company",
    "brewery_type": "brewpub",
    "street": "4224 E Lake Rd",
    "address_2": null,
    "address_3": null,
    "city": "Jamestown",
    "state_province": "Pennsylvania",
    "postal_code": "16134-4524",
    "country": "United States",
    "longitude": -80.45979905,
    "latitude": 41.51243185,
    "phone": "7249321080",
    "website_url": "http://www.mortalskey.com",
    "state": "PA",
    "region": null,
    "amenities": "[]",
    "description": null,
    "hours": "{}",
    "image_url": null
  },
  {
    "name": "Moss Mill Brewing",
    "brewery_type": "micro",
    "street": "109 Pike Cir Ste D",
    "address_2": null,
    "address_3": null,
    "city": "Huntingdon Valley",
    "state_province": "Pennsylvania",
    "postal_code": "19006-1630",
    "country": "United States",
    "longitude": null,
    "latitude": null,
    "phone": "2679822297",
    "website_url": "http://www.mossmillbrewing.com",
    "state": "PA",
    "region": null,
    "amenities": "[]",
    "description": null,
    "hours": "{}",
    "image_url": null
  },
  {
    "name": "Mount Gretna Craft Brewery",
    "brewery_type": "micro",
    "street": "2701 Horseshoe Pike",
    "address_2": null,
    "address_3": null,
    "city": "Palmyra",
    "state_province": "Pennsylvania",
    "postal_code": "17078-8949",
    "country": "United States",
    "longitude": null,
    "latitude": null,
    "phone": "7178383545",
    "website_url": "http://www.gretnabrewery.com",
    "state": "PA",
    "region": null,
    "amenities": "[]",
    "description": null,
    "hours": "{}",
    "image_url": null
  },
  {
    "name": "Mudhook Brewing Co",
    "brewery_type": "brewpub",
    "street": "34 N Cherry Ln",
    "address_2": null,
    "address_3": null,
    "city": "York",
    "state_province": "Pennsylvania",
    "postal_code": "17401-5306",
    "country": "United States",
    "longitude": -76.72935297,
    "latitude": 39.96311069,
    "phone": "7177473605",
    "website_url": "http://www.mudhookbrewing.com",
    "state": "PA",
    "region": null,
    "amenities": "[]",
    "description": null,
    "hours": "{}",
    "image_url": null
  },
  {
    "name": "Naked Brewing Co",
    "brewery_type": "micro",
    "street": "51 Buck Rd",
    "address_2": null,
    "address_3": null,
    "city": "Huntingdon Valley",
    "state_province": "Pennsylvania",
    "postal_code": "19006-1501",
    "country": "United States",
    "longitude": null,
    "latitude": null,
    "phone": "2673559561",
    "website_url": "http://www.nakedbrewingcompany.com",
    "state": "PA",
    "region": null,
    "amenities": "[]",
    "description": null,
    "hours": "{}",
    "image_url": null
  },
  {
    "name": "National Beer Museum Development Group",
    "brewery_type": "planning",
    "street": null,
    "address_2": null,
    "address_3": null,
    "city": "Pittsburgh",
    "state_province": "Pennsylvania",
    "postal_code": "15212",
    "country": "United States",
    "longitude": null,
    "latitude": null,
    "phone": "4123983236",
    "website_url": "http://www.BrewMuseum.com",
    "state": "PA",
    "region": null,
    "amenities": "[]",
    "description": null,
    "hours": "{}",
    "image_url": null
  },
  {
    "name": "Neshaminy Creek Brewing Co",
    "brewery_type": "regional",
    "street": "909 Ray Ave",
    "address_2": null,
    "address_3": null,
    "city": "Croydon",
    "state_province": "Pennsylvania",
    "postal_code": "19021-7510",
    "country": "United States",
    "longitude": -74.90222455,
    "latitude": 40.08537673,
    "phone": "2154587081",
    "website_url": "http://www.neshaminycreekbrewing.com",
    "state": "PA",
    "region": null,
    "amenities": "[]",
    "description": null,
    "hours": "{}",
    "image_url": null
  },
  {
    "name": "New Trail Brewing Company",
    "brewery_type": "micro",
    "street": "240 Arch St Bldg 18",
    "address_2": null,
    "address_3": null,
    "city": "Williamsport",
    "state_province": "Pennsylvania",
    "postal_code": "17701-7810",
    "country": "United States",
    "longitude": null,
    "latitude": null,
    "phone": null,
    "website_url": "http://www.newtrailbrewing.com",
    "state": "PA",
    "region": null,
    "amenities": "[]",
    "description": null,
    "hours": "{}",
    "image_url": null
  },
  {
    "name": "Nimble Hill Brewing Co",
    "brewery_type": "micro",
    "street": "3971 SR 6",
    "address_2": null,
    "address_3": null,
    "city": "Tunkhannock",
    "state_province": "Pennsylvania",
    "postal_code": "18657",
    "country": "United States",
    "longitude": null,
    "latitude": null,
    "phone": "5708369463",
    "website_url": "http://www.nimblehillbrewingcompany.com",
    "state": "PA",
    "region": null,
    "amenities": "[]",
    "description": null,
    "hours": "{}",
    "image_url": null
  },
  {
    "name": "Noble Stein Brewing Co.",
    "brewery_type": "micro",
    "street": "1170-G Wayne Avenue",
    "address_2": null,
    "address_3": null,
    "city": "Indiana",
    "state_province": "Pennsylvania",
    "postal_code": "15701",
    "country": "United States",
    "longitude": null,
    "latitude": null,
    "phone": "7248018087",
    "website_url": "http://www.noblesteinbeer.com",
    "state": "PA",
    "region": null,
    "amenities": "[]",
    "description": null,
    "hours": "{}",
    "image_url": null
  },
  {
    "name": "North Country Brewing Co. LLC",
    "brewery_type": "micro",
    "street": "141 S Main St",
    "address_2": null,
    "address_3": null,
    "city": "Slippery Rock",
    "state_province": "Pennsylvania",
    "postal_code": "16057-1246",
    "country": "United States",
    "longitude": -80.05566287,
    "latitude": 41.06345599,
    "phone": "7247942337",
    "website_url": "http://www.northcountrybrewing.com",
    "state": "PA",
    "region": null,
    "amenities": "[]",
    "description": null,
    "hours": "{}",
    "image_url": null
  },
  {
    "name": "North Country Canning Co",
    "brewery_type": "micro",
    "street": "111 Arrowhead Dr Ste B",
    "address_2": null,
    "address_3": null,
    "city": "Slippery Rock",
    "state_province": "Pennsylvania",
    "postal_code": "16057-2667",
    "country": "United States",
    "longitude": null,
    "latitude": null,
    "phone": "7247942337",
    "website_url": null,
    "state": "PA",
    "region": null,
    "amenities": "[]",
    "description": null,
    "hours": "{}",
    "image_url": null
  },
  {
    "name": "Oakbrook Brewing Company",
    "brewery_type": "brewpub",
    "street": "628 Park Ave",
    "address_2": null,
    "address_3": null,
    "city": "Reading",
    "state_province": "Pennsylvania",
    "postal_code": "19611-1926",
    "country": "United States",
    "longitude": -75.93478919,
    "latitude": 40.31684944,
    "phone": "4847555289",
    "website_url": "http://www.oakbrookbrew.com",
    "state": "PA",
    "region": null,
    "amenities": "[]",
    "description": null,
    "hours": "{}",
    "image_url": null
  },
  {
    "name": "Old Forge Brewing Co",
    "brewery_type": "micro",
    "street": "401 Railroad St Ste 104",
    "address_2": null,
    "address_3": null,
    "city": "Danville",
    "state_province": "Pennsylvania",
    "postal_code": "17821-1593",
    "country": "United States",
    "longitude": null,
    "latitude": null,
    "phone": "5702758151",
    "website_url": "http://www.oldforgebrewingcompany.com",
    "state": "PA",
    "region": null,
    "amenities": "[]",
    "description": null,
    "hours": "{}",
    "image_url": null
  },
  {
    "name": "Old Forge Brewing Co",
    "brewery_type": "brewpub",
    "street": "532 Mill St",
    "address_2": null,
    "address_3": null,
    "city": "Danville",
    "state_province": "Pennsylvania",
    "postal_code": "17821-1015",
    "country": "United States",
    "longitude": -76.61600763,
    "latitude": 40.96547999,
    "phone": "5702758151",
    "website_url": "http://www.oldforgebrewingcompany.com",
    "state": "PA",
    "region": null,
    "amenities": "[]",
    "description": null,
    "hours": "{}",
    "image_url": null
  },
  {
    "name": "Olde Bedford Brewing Company",
    "brewery_type": "micro",
    "street": "109 Railroad St",
    "address_2": null,
    "address_3": null,
    "city": "Bedford",
    "state_province": "Pennsylvania",
    "postal_code": "15522-1014",
    "country": "United States",
    "longitude": -78.5033435,
    "latitude": 40.021898,
    "phone": "9072297942",
    "website_url": "http://www.oldebbc.com",
    "state": "PA",
    "region": null,
    "amenities": "[]",
    "description": null,
    "hours": "{}",
    "image_url": null
  },
  {
    "name": "Orr's Brewing Company",
    "brewery_type": "brewpub",
    "street": "109 S Franklin St",
    "address_2": null,
    "address_3": null,
    "city": "Titusville",
    "state_province": "Pennsylvania",
    "postal_code": "16354",
    "country": "United States",
    "longitude": -79.6733234,
    "latitude": 41.6230211,
    "phone": "8148270000",
    "website_url": null,
    "state": "PA",
    "region": null,
    "amenities": "[]",
    "description": null,
    "hours": "{}",
    "image_url": null
  },
  {
    "name": "Ottos Pub & Brewery",
    "brewery_type": "brewpub",
    "street": "2235 N Atherton St",
    "address_2": null,
    "address_3": null,
    "city": "State College",
    "state_province": "Pennsylvania",
    "postal_code": "16803-1529",
    "country": "United States",
    "longitude": -77.8742944,
    "latitude": 40.7977695,
    "phone": "8144701394",
    "website_url": "http://www.ottospubandbrewery.com",
    "state": "PA",
    "region": null,
    "amenities": "[]",
    "description": null,
    "hours": "{}",
    "image_url": null
  },
  {
    "name": "Pennsylvania Brewing Co",
    "brewery_type": "micro",
    "street": "800 Vinial St",
    "address_2": null,
    "address_3": null,
    "city": "Pittsburgh",
    "state_province": "Pennsylvania",
    "postal_code": "15212-5151",
    "country": "United States",
    "longitude": -79.99163722,
    "latitude": 40.457132,
    "phone": "4122379402",
    "website_url": "http://www.pennbrew.com",
    "state": "PA",
    "region": null,
    "amenities": "[]",
    "description": null,
    "hours": "{}",
    "image_url": null
  },
  {
    "name": "Perkiomen Valley Brewery",
    "brewery_type": "taproom",
    "street": "101 Walnut St",
    "address_2": null,
    "address_3": null,
    "city": "Green Lane",
    "state_province": "Pennsylvania",
    "postal_code": "18054",
    "country": "United States",
    "longitude": -75.4716647,
    "latitude": 40.3381909,
    "phone": "2158726424",
    "website_url": "http://www.perkiomenvalleybrewery.com",
    "state": "PA",
    "region": null,
    "amenities": "[]",
    "description": null,
    "hours": "{}",
    "image_url": null
  },
  {
    "name": "Petrucci Brothers Brewing Co",
    "brewery_type": "micro",
    "street": "911 5th Ave",
    "address_2": null,
    "address_3": null,
    "city": "New Brighton",
    "state_province": "Pennsylvania",
    "postal_code": "15066-1923",
    "country": "United States",
    "longitude": -80.31190134,
    "latitude": 40.73477504,
    "phone": "7249872579",
    "website_url": "http://www.petruccibrothers.com",
    "state": "PA",
    "region": null,
    "amenities": "[]",
    "description": null,
    "hours": "{}",
    "image_url": null
  },
  {
    "name": "Philadelphia Brewing Co",
    "brewery_type": "micro",
    "street": "2423 Amber St",
    "address_2": null,
    "address_3": null,
    "city": "Philadelphia",
    "state_province": "Pennsylvania",
    "postal_code": "19125-1606",
    "country": "United States",
    "longitude": -75.12769991,
    "latitude": 39.98282736,
    "phone": "2154272739",
    "website_url": "http://www.philadelphiabrewing.com",
    "state": "PA",
    "region": null,
    "amenities": "[]",
    "description": null,
    "hours": "{}",
    "image_url": null
  },
  {
    "name": "Pig Iron Brewing Co",
    "brewery_type": "brewpub",
    "street": "40 E Front St",
    "address_2": null,
    "address_3": null,
    "city": "Marietta",
    "state_province": "Pennsylvania",
    "postal_code": "17547-1538",
    "country": "United States",
    "longitude": -76.55317283,
    "latitude": 40.05569372,
    "phone": "7176041161",
    "website_url": "http://www.pigironbrewingco.com",
    "state": "PA",
    "region": null,
    "amenities": "[]",
    "description": null,
    "hours": "{}",
    "image_url": null
  },
  {
    "name": "Pig Island Brewery",
    "brewery_type": "planning",
    "street": null,
    "address_2": null,
    "address_3": null,
    "city": "Bradford",
    "state_province": "Pennsylvania",
    "postal_code": "16701-1304",
    "country": "United States",
    "longitude": null,
    "latitude": null,
    "phone": "8143667612",
    "website_url": null,
    "state": "PA",
    "region": null,
    "amenities": "[]",
    "description": null,
    "hours": "{}",
    "image_url": null
  },
  {
    "name": "Pittsburgh Brewing Co",
    "brewery_type": "contract",
    "street": "3340 Liberty Ave",
    "address_2": null,
    "address_3": null,
    "city": "Pittsburgh",
    "state_province": "Pennsylvania",
    "postal_code": "15201-1394",
    "country": "United States",
    "longitude": -79.96570261,
    "latitude": 40.46161288,
    "phone": "4126827400",
    "website_url": "http://www.pittsburghbrewing.com",
    "state": "PA",
    "region": null,
    "amenities": "[]",
    "description": null,
    "hours": "{}",
    "image_url": null
  },
  {
    "name": "Pizza Boy Brewing Co",
    "brewery_type": "micro",
    "street": "2240 Millennium Way",
    "address_2": null,
    "address_3": null,
    "city": "Enola",
    "state_province": "Pennsylvania",
    "postal_code": "17025-1484",
    "country": "United States",
    "longitude": null,
    "latitude": null,
    "phone": "7177283840",
    "website_url": "http://www.pizzaboybrewing.com",
    "state": "PA",
    "region": null,
    "amenities": "[]",
    "description": null,
    "hours": "{}",
    "image_url": null
  },
  {
    "name": "Pocono Brewery Company",
    "brewery_type": "brewpub",
    "street": "2092 Route 611",
    "address_2": null,
    "address_3": null,
    "city": "Swiftwater",
    "state_province": "Pennsylvania",
    "postal_code": "18370-7773",
    "country": "United States",
    "longitude": null,
    "latitude": null,
    "phone": "5708391500",
    "website_url": null,
    "state": "PA",
    "region": null,
    "amenities": "[]",
    "description": null,
    "hours": "{}",
    "image_url": null
  },
  {
    "name": "Point Breeze Brewing",
    "brewery_type": "micro",
    "street": "1225 S 28th St",
    "address_2": null,
    "address_3": null,
    "city": "Philadelphia",
    "state_province": "Pennsylvania",
    "postal_code": "19146-",
    "country": "United States",
    "longitude": -75.1900898,
    "latitude": 39.9382866,
    "phone": null,
    "website_url": "http://www.pointbreezebrewing.com",
    "state": "PA",
    "region": null,
    "amenities": "[]",
    "description": null,
    "hours": "{}",
    "image_url": null
  },
  {
    "name": "Quinn Brewing Company",
    "brewery_type": "micro",
    "street": "3000 Commerce Loop Ste 3200",
    "address_2": null,
    "address_3": null,
    "city": "Irwin",
    "state_province": "Pennsylvania",
    "postal_code": "15642-8112",
    "country": "United States",
    "longitude": null,
    "latitude": null,
    "phone": "7245905916",
    "website_url": "http://www.quinnbrewing.com",
    "state": "PA",
    "region": null,
    "amenities": "[]",
    "description": null,
    "hours": "{}",
    "image_url": null
  },
  {
    "name": "Race Street Brew Works",
    "brewery_type": "brewpub",
    "street": "511 Spruce St Ste 2",
    "address_2": null,
    "address_3": null,
    "city": "Clearfield",
    "state_province": "Pennsylvania",
    "postal_code": "16830-1923",
    "country": "United States",
    "longitude": null,
    "latitude": null,
    "phone": "8142054052",
    "website_url": "http://www.racestreetbrew.com",
    "state": "PA",
    "region": null,
    "amenities": "[]",
    "description": null,
    "hours": "{}",
    "image_url": null
  },
  {
    "name": "Railroad City Brewing Company",
    "brewery_type": "brewpub",
    "street": "1415 11th Ave Ste 1",
    "address_2": null,
    "address_3": null,
    "city": "Altoona",
    "state_province": "Pennsylvania",
    "postal_code": "16601-3303",
    "country": "United States",
    "longitude": null,
    "latitude": null,
    "phone": "8142012827",
    "website_url": "http://www.railroadcitybrewing.com",
    "state": "PA",
    "region": null,
    "amenities": "[]",
    "description": null,
    "hours": "{}",
    "image_url": null
  },
  {
    "name": "Raney Cellars",
    "brewery_type": "brewpub",
    "street": "11 Manor Ave",
    "address_2": null,
    "address_3": null,
    "city": "Millersville",
    "state_province": "Pennsylvania",
    "postal_code": "17551",
    "country": "United States",
    "longitude": null,
    "latitude": null,
    "phone": "7175845085",
    "website_url": "http://raneycellarsbrewing.com",
    "state": "PA",
    "region": null,
    "amenities": "[]",
    "description": null,
    "hours": "{}",
    "image_url": null
  },
  {
    "name": "Reclamation Brewing Company",
    "brewery_type": "brewpub",
    "street": "221 S Main St",
    "address_2": null,
    "address_3": null,
    "city": "Butler",
    "state_province": "Pennsylvania",
    "postal_code": "16001-5908",
    "country": "United States",
    "longitude": -79.89543627,
    "latitude": 40.85876516,
    "phone": "7242820831",
    "website_url": "http://www.reclamationbrewing.com",
    "state": "PA",
    "region": null,
    "amenities": "[]",
    "description": null,
    "hours": "{}",
    "image_url": null
  },
  {
    "name": "Recon Brewing",
    "brewery_type": "brewpub",
    "street": "1747 N Main St Ext",
    "address_2": null,
    "address_3": null,
    "city": "Butler",
    "state_province": "Pennsylvania",
    "postal_code": "16001-1327",
    "country": "United States",
    "longitude": null,
    "latitude": null,
    "phone": "7242568747",
    "website_url": "http://www.reconbrewing.com",
    "state": "PA",
    "region": null,
    "amenities": "[]",
    "description": null,
    "hours": "{}",
    "image_url": null
  },
  {
    "name": "Riepstines Pub",
    "brewery_type": "brewpub",
    "street": "913 Arch St",
    "address_2": null,
    "address_3": null,
    "city": "Williamsport",
    "state_province": "Pennsylvania",
    "postal_code": "17701-5630",
    "country": "United States",
    "longitude": -77.05299603,
    "latitude": 41.23997285,
    "phone": "5703292739",
    "website_url": "http://www.riepstinespub.com",
    "state": "PA",
    "region": null,
    "amenities": "[]",
    "description": null,
    "hours": "{}",
    "image_url": null
  },
  {
    "name": "Ritter Brewing Company LLC",
    "brewery_type": "micro",
    "street": "449 Gino Merli Dr",
    "address_2": null,
    "address_3": null,
    "city": "Peckville",
    "state_province": "Pennsylvania",
    "postal_code": "18452-1631",
    "country": "United States",
    "longitude": null,
    "latitude": null,
    "phone": null,
    "website_url": "http://www.Ritterbrewing.com",
    "state": "PA",
    "region": null,
    "amenities": "[]",
    "description": null,
    "hours": "{}",
    "image_url": null
  },
  {
    "name": "River Barge Brewing",
    "brewery_type": "brewpub",
    "street": "71 Grovedale Ln",
    "address_2": null,
    "address_3": null,
    "city": "Wyalusing",
    "state_province": "Pennsylvania",
    "postal_code": "18853-7854",
    "country": "United States",
    "longitude": null,
    "latitude": null,
    "phone": "5707461400",
    "website_url": "http://www.riverbargebrewing.com",
    "state": "PA",
    "region": null,
    "amenities": "[]",
    "description": null,
    "hours": "{}",
    "image_url": null
  },
  {
    "name": "River Bend Hop Farm And Brewery",
    "brewery_type": "micro",
    "street": "1800 Lower Bailey Rd",
    "address_2": null,
    "address_3": null,
    "city": "Newport",
    "state_province": "Pennsylvania",
    "postal_code": "17074-7622",
    "country": "United States",
    "longitude": null,
    "latitude": null,
    "phone": "7173156764",
    "website_url": "http://www.riverbendhopfarmandbrewery.com",
    "state": "PA",
    "region": null,
    "amenities": "[]",
    "description": null,
    "hours": "{}",
    "image_url": null
  },
  {
    "name": "Rivertowne Brewery - Production Facility",
    "brewery_type": "micro",
    "street": "5578 Old William Penn Hwy",
    "address_2": null,
    "address_3": null,
    "city": "Export",
    "state_province": "Pennsylvania",
    "postal_code": "15632-9303",
    "country": "United States",
    "longitude": -79.6373888,
    "latitude": 40.42147373,
    "phone": "7245192145",
    "website_url": "http://www.myrivertowne.com",
    "state": "PA",
    "region": null,
    "amenities": "[]",
    "description": null,
    "hours": "{}",
    "image_url": null
  },
  {
    "name": "Rivertowne Pour House",
    "brewery_type": "micro",
    "street": "312 Center Rd",
    "address_2": null,
    "address_3": null,
    "city": "Monroeville",
    "state_province": "Pennsylvania",
    "postal_code": "15146-1322",
    "country": "United States",
    "longitude": -79.76389793,
    "latitude": 40.44745731,
    "phone": "4123728199",
    "website_url": "http://www.myrivertowne.com",
    "state": "PA",
    "region": null,
    "amenities": "[]",
    "description": null,
    "hours": "{}",
    "image_url": null
  },
  {
    "name": "Robin Hood Brewing Co",
    "brewery_type": "brewpub",
    "street": null,
    "address_2": null,
    "address_3": null,
    "city": "Bellefonte",
    "state_province": "Pennsylvania",
    "postal_code": "16823",
    "country": "United States",
    "longitude": null,
    "latitude": null,
    "phone": "8143578399",
    "website_url": "http://www.robinhoodbrewingco.com",
    "state": "PA",
    "region": null,
    "amenities": "[]",
    "description": null,
    "hours": "{}",
    "image_url": null
  },
  {
    "name": "Rock Bottom Brewery - Pittsburgh",
    "brewery_type": "brewpub",
    "street": "171 E Bridge St",
    "address_2": null,
    "address_3": null,
    "city": "Homestead",
    "state_province": "Pennsylvania",
    "postal_code": "15120",
    "country": "United States",
    "longitude": -79.9149542,
    "latitude": 40.4093329,
    "phone": "4124622739",
    "website_url": "http://www.rockbottom.com",
    "state": "PA",
    "region": null,
    "amenities": "[]",
    "description": null,
    "hours": "{}",
    "image_url": null
  },
  {
    "name": "Rock God Brewing Company",
    "brewery_type": "micro",
    "street": "459 Rooney Ave",
    "address_2": null,
    "address_3": null,
    "city": "Danville",
    "state_province": "Pennsylvania",
    "postal_code": "17821-1897",
    "country": "United States",
    "longitude": -76.618447,
    "latitude": 40.962031,
    "phone": "5702844096",
    "website_url": "http://rockgodbeer.com",
    "state": "PA",
    "region": null,
    "amenities": "[]",
    "description": null,
    "hours": "{}",
    "image_url": null
  },
  {
    "name": "Rogan Brewing Company",
    "brewery_type": "planning",
    "street": null,
    "address_2": null,
    "address_3": null,
    "city": "Duquesne",
    "state_province": "Pennsylvania",
    "postal_code": "15110-1525",
    "country": "United States",
    "longitude": null,
    "latitude": null,
    "phone": "4125455400",
    "website_url": "http://www.roganbrewing.com",
    "state": "PA",
    "region": null,
    "amenities": "[]",
    "description": null,
    "hours": "{}",
    "image_url": null
  },
  {
    "name": "Rooney's Beer Company",
    "brewery_type": "micro",
    "street": "800 Vinial St Ste B204",
    "address_2": null,
    "address_3": null,
    "city": "Pittsburgh",
    "state_province": "Pennsylvania",
    "postal_code": "15212-5151",
    "country": "United States",
    "longitude": null,
    "latitude": null,
    "phone": "4122515995",
    "website_url": "http://rooneysbeer.com",
    "state": "PA",
    "region": null,
    "amenities": "[]",
    "description": null,
    "hours": "{}",
    "image_url": null
  },
  {
    "name": "Root Down Brewing Company",
    "brewery_type": "brewpub",
    "street": "1 N Main St",
    "address_2": null,
    "address_3": null,
    "city": "Phoenixville",
    "state_province": "Pennsylvania",
    "postal_code": "19460-3419",
    "country": "United States",
    "longitude": -75.515616,
    "latitude": 40.137147,
    "phone": "4843932337",
    "website_url": "http://www.rootdownbrewing.com",
    "state": "PA",
    "region": null,
    "amenities": "[]",
    "description": null,
    "hours": "{}",
    "image_url": null
  },
  {
    "name": "Rotunda Brewing",
    "brewery_type": "brewpub",
    "street": "245 W Main St",
    "address_2": null,
    "address_3": null,
    "city": "Annville",
    "state_province": "Pennsylvania",
    "postal_code": "17003-1326",
    "country": "United States",
    "longitude": -76.520098,
    "latitude": 40.32856075,
    "phone": "7178672337",
    "website_url": "http://www.batdorfrestaurant.com/rbc",
    "state": "PA",
    "region": null,
    "amenities": "[]",
    "description": null,
    "hours": "{}",
    "image_url": null
  },
  {
    "name": "Round Guys Brewing Co",
    "brewery_type": "brewpub",
    "street": "324 W Main St",
    "address_2": null,
    "address_3": null,
    "city": "Lansdale",
    "state_province": "Pennsylvania",
    "postal_code": "19446-2006",
    "country": "United States",
    "longitude": -75.28630882,
    "latitude": 40.24337843,
    "phone": "6107151512",
    "website_url": "http://www.roundguysbrewery.com",
    "state": "PA",
    "region": null,
    "amenities": "[]",
    "description": null,
    "hours": "{}",
    "image_url": null
  },
  {
    "name": "Roundabout Brewery",
    "brewery_type": "micro",
    "street": "4901 Butler St",
    "address_2": null,
    "address_3": null,
    "city": "Pittsburgh",
    "state_province": "Pennsylvania",
    "postal_code": "15201-2718",
    "country": "United States",
    "longitude": -79.956943,
    "latitude": 40.477161,
    "phone": "4126210540",
    "website_url": "http://roundaboutbeer.com",
    "state": "PA",
    "region": null,
    "amenities": "[]",
    "description": null,
    "hours": "{}",
    "image_url": null
  },
  {
    "name": "Roundback Brewery LLC",
    "brewery_type": "planning",
    "street": null,
    "address_2": null,
    "address_3": null,
    "city": "Danville",
    "state_province": "Pennsylvania",
    "postal_code": "17821-7746",
    "country": "United States",
    "longitude": null,
    "latitude": null,
    "phone": "5708548067",
    "website_url": "http://roundbackbrewery.com",
    "state": "PA",
    "region": null,
    "amenities": "[]",
    "description": null,
    "hours": "{}",
    "image_url": null
  },
  {
    "name": "Roy Pitz Brewing Co",
    "brewery_type": "brewpub",
    "street": "301 Roy Pitz Ave Ste 3",
    "address_2": null,
    "address_3": null,
    "city": "Chambersburg",
    "state_province": "Pennsylvania",
    "postal_code": "17201-1668",
    "country": "United States",
    "longitude": null,
    "latitude": null,
    "phone": "7174968753",
    "website_url": "http://www.roypitz.com",
    "state": "PA",
    "region": null,
    "amenities": "[]",
    "description": null,
    "hours": "{}",
    "image_url": null
  },
  {
    "name": "Rumspringa Brewing Co",
    "brewery_type": "micro",
    "street": "3174 Old Philadelphia Pike",
    "address_2": null,
    "address_3": null,
    "city": "Bird In Hand",
    "state_province": "Pennsylvania",
    "postal_code": "17505-9727",
    "country": "United States",
    "longitude": -76.18731,
    "latitude": 40.038905,
    "phone": "7177687194",
    "website_url": null,
    "state": "PA",
    "region": null,
    "amenities": "[]",
    "description": null,
    "hours": "{}",
    "image_url": null
  },
  {
    "name": "Rusty Gold Brewing",
    "brewery_type": "micro",
    "street": "43 W Pike St",
    "address_2": null,
    "address_3": null,
    "city": "Canonsburg",
    "state_province": "Pennsylvania",
    "postal_code": "15317",
    "country": "United States",
    "longitude": -80.18750486,
    "latitude": 40.25856457,
    "phone": "7244852332",
    "website_url": null,
    "state": "PA",
    "region": null,
    "amenities": "[]",
    "description": null,
    "hours": "{}",
    "image_url": null
  },
  {
    "name": "Rusty Rail Brewing",
    "brewery_type": "brewpub",
    "street": "5 N 8th St Ste 1",
    "address_2": null,
    "address_3": null,
    "city": "Mifflinburg",
    "state_province": "Pennsylvania",
    "postal_code": "17844-1003",
    "country": "United States",
    "longitude": null,
    "latitude": null,
    "phone": "5709667878",
    "website_url": "http://www.rustyrailbrewing.com",
    "state": "PA",
    "region": null,
    "amenities": "[]",
    "description": null,
    "hours": "{}",
    "image_url": null
  },
  {
    "name": "Saint Benjamin Brewing Co",
    "brewery_type": "micro",
    "street": "1710 N 5th St",
    "address_2": null,
    "address_3": null,
    "city": "Philadelphia",
    "state_province": "Pennsylvania",
    "postal_code": "19122-2909",
    "country": "United States",
    "longitude": -75.1475016,
    "latitude": 39.9562965,
    "phone": null,
    "website_url": null,
    "state": "PA",
    "region": null,
    "amenities": "[]",
    "description": null,
    "hours": "{}",
    "image_url": null
  },
  {
    "name": "Saint Boniface Craft Brewing Co",
    "brewery_type": "brewpub",
    "street": "1701 W Main St",
    "address_2": null,
    "address_3": null,
    "city": "Ephrata",
    "state_province": "Pennsylvania",
    "postal_code": "17522-1106",
    "country": "United States",
    "longitude": -76.205629,
    "latitude": 40.200294,
    "phone": "7177211744",
    "website_url": null,
    "state": "PA",
    "region": null,
    "amenities": "[]",
    "description": null,
    "hours": "{}",
    "image_url": null
  },
  {
    "name": "Samuel Adams Pennsylvania Brewing Co",
    "brewery_type": "regional",
    "street": "7880 Penn Dr",
    "address_2": null,
    "address_3": null,
    "city": "Breinigsville",
    "state_province": "Pennsylvania",
    "postal_code": "18031-1508",
    "country": "United States",
    "longitude": null,
    "latitude": null,
    "phone": "6103956811",
    "website_url": null,
    "state": "PA",
    "region": null,
    "amenities": "[]",
    "description": null,
    "hours": "{}",
    "image_url": null
  },
  {
    "name": "Saucony Creek Brewing Company",
    "brewery_type": "micro",
    "street": "15032 Kutztown Rd",
    "address_2": null,
    "address_3": null,
    "city": "Kutztown",
    "state_province": "Pennsylvania",
    "postal_code": "19530-9275",
    "country": "United States",
    "longitude": -75.79700353,
    "latitude": 40.50149993,
    "phone": "6106833128",
    "website_url": "http://www.sauconycreekbrewing.com",
    "state": "PA",
    "region": null,
    "amenities": "[]",
    "description": null,
    "hours": "{}",
    "image_url": null
  },
  {
    "name": "Second District Brewing Co.",
    "brewery_type": "brewpub",
    "street": "1939 S. Bancroft St.",
    "address_2": null,
    "address_3": null,
    "city": "Philadelphia",
    "state_province": "Pennsylvania",
    "postal_code": "19145",
    "country": "United States",
    "longitude": -75.17297324,
    "latitude": 39.92679584,
    "phone": "2155755900",
    "website_url": "http://seconddistrictbrewing.com",
    "state": "PA",
    "region": null,
    "amenities": "[]",
    "description": null,
    "hours": "{}",
    "image_url": null
  },
  {
    "name": "Selins Grove Brewing Co",
    "brewery_type": "brewpub",
    "street": "119 N Market St",
    "address_2": null,
    "address_3": null,
    "city": "Selinsgrove",
    "state_province": "Pennsylvania",
    "postal_code": "17870-1905",
    "country": "United States",
    "longitude": -76.86152979,
    "latitude": 40.80056952,
    "phone": "5703747308",
    "website_url": "http://www.selinsgrovebrewing.com",
    "state": "PA",
    "region": null,
    "amenities": "[]",
    "description": null,
    "hours": "{}",
    "image_url": null
  },
  {
    "name": "Separatist Beer Project",
    "brewery_type": "proprietor",
    "street": null,
    "address_2": null,
    "address_3": null,
    "city": "Emmaus",
    "state_province": "Pennsylvania",
    "postal_code": "18049",
    "country": "United States",
    "longitude": null,
    "latitude": null,
    "phone": "6103309114",
    "website_url": "http://www.soleales.com",
    "state": "PA",
    "region": null,
    "amenities": "[]",
    "description": null,
    "hours": "{}",
    "image_url": null
  },
  {
    "name": "Seven Sirens Brewing Company",
    "brewery_type": "planning",
    "street": null,
    "address_2": null,
    "address_3": null,
    "city": "Bethlehem",
    "state_province": "Pennsylvania",
    "postal_code": "18015",
    "country": "United States",
    "longitude": null,
    "latitude": null,
    "phone": "4842396544",
    "website_url": null,
    "state": "PA",
    "region": null,
    "amenities": "[]",
    "description": null,
    "hours": "{}",
    "image_url": null
  },
  {
    "name": "Shawnee Craft Brewery",
    "brewery_type": "brewpub",
    "street": "1 River Rd",
    "address_2": null,
    "address_3": null,
    "city": "Shawnee on Delaware",
    "state_province": "Pennsylvania",
    "postal_code": "18356",
    "country": "United States",
    "longitude": -75.1107249,
    "latitude": 41.0118539,
    "phone": "5704244000",
    "website_url": null,
    "state": "PA",
    "region": null,
    "amenities": "[]",
    "description": null,
    "hours": "{}",
    "image_url": null
  },
  {
    "name": "ShuBrew, LLC",
    "brewery_type": "brewpub",
    "street": "210 S Main St",
    "address_2": null,
    "address_3": null,
    "city": "Zelienople",
    "state_province": "Pennsylvania",
    "postal_code": "16063-1150",
    "country": "United States",
    "longitude": -80.13635892,
    "latitude": 40.79285063,
    "phone": "7247664426",
    "website_url": null,
    "state": "PA",
    "region": null,
    "amenities": "[]",
    "description": null,
    "hours": "{}",
    "image_url": null
  },
  {
    "name": "Shy Bear Brewing",
    "brewery_type": "brewpub",
    "street": "35 Meadowbrook Ln",
    "address_2": null,
    "address_3": null,
    "city": "Lewistown",
    "state_province": "Pennsylvania",
    "postal_code": "17044-2802",
    "country": "United States",
    "longitude": null,
    "latitude": null,
    "phone": "7174471701",
    "website_url": "http://www.shybearbrewing.com",
    "state": "PA",
    "region": null,
    "amenities": "[]",
    "description": null,
    "hours": "{}",
    "image_url": null
  },
  {
    "name": "Sly Fox Brewhouse and Eatery",
    "brewery_type": "micro",
    "street": "520 Kimberton Rd Pikeland Village Square",
    "address_2": null,
    "address_3": null,
    "city": "Phoenixville",
    "state_province": "Pennsylvania",
    "postal_code": "19460-4737",
    "country": "United States",
    "longitude": null,
    "latitude": null,
    "phone": "6109354540",
    "website_url": "http://www.slyfoxbeer.com",
    "state": "PA",
    "region": null,
    "amenities": "[]",
    "description": null,
    "hours": "{}",
    "image_url": null
  },
  {
    "name": "Sly Fox Brewing Co",
    "brewery_type": "regional",
    "street": "331 Circle of Progress Dr",
    "address_2": null,
    "address_3": null,
    "city": "Pottstown",
    "state_province": "Pennsylvania",
    "postal_code": "19464-3811",
    "country": "United States",
    "longitude": -75.66632314,
    "latitude": 40.26338927,
    "phone": "4845248210",
    "website_url": "http://www.slyfoxbeer.com",
    "state": "PA",
    "region": null,
    "amenities": "[]",
    "description": null,
    "hours": "{}",
    "image_url": null
  },
  {
    "name": "Snitz Creek Brewery",
    "brewery_type": "brewpub",
    "street": "7 N 9th St",
    "address_2": null,
    "address_3": null,
    "city": "Lebanon",
    "state_province": "Pennsylvania",
    "postal_code": "17046-4902",
    "country": "United States",
    "longitude": -76.42637732,
    "latitude": 40.33937728,
    "phone": "7174504467",
    "website_url": "http://www.snitzcreekbrewery.com",
    "state": "PA",
    "region": null,
    "amenities": "[]",
    "description": null,
    "hours": "{}",
    "image_url": null
  },
  {
    "name": "Sobel's Obscure Brewery, LLC",
    "brewery_type": "contract",
    "street": "954 Arona Rd",
    "address_2": null,
    "address_3": null,
    "city": "New Stanton",
    "state_province": "Pennsylvania",
    "postal_code": "15672-1109",
    "country": "United States",
    "longitude": null,
    "latitude": null,
    "phone": "4125251553",
    "website_url": "http://www.Sobbrews.com",
    "state": "PA",
    "region": null,
    "amenities": "[]",
    "description": null,
    "hours": "{}",
    "image_url": null
  },
  {
    "name": "Something Wicked Brewing Company",
    "brewery_type": "brewpub",
    "street": "34 Broadway Ste 200",
    "address_2": null,
    "address_3": null,
    "city": "Hanover",
    "state_province": "Pennsylvania",
    "postal_code": "17331-3104",
    "country": "United States",
    "longitude": -76.98291017,
    "latitude": 39.80048752,
    "phone": "7173165488",
    "website_url": "http://www.somethingwickedbrewing.com",
    "state": "PA",
    "region": null,
    "amenities": "[]",
    "description": null,
    "hours": "{}",
    "image_url": null
  },
  {
    "name": "South County Brewing Co",
    "brewery_type": "micro",
    "street": "104 Mill St",
    "address_2": null,
    "address_3": null,
    "city": "Fawn Grove",
    "state_province": "Pennsylvania",
    "postal_code": "17321-9654",
    "country": "United States",
    "longitude": -76.44958324,
    "latitude": 39.7322666,
    "phone": "7173824016",
    "website_url": "http://www.southcountybrewing.com",
    "state": "PA",
    "region": null,
    "amenities": "[]",
    "description": null,
    "hours": "{}",
    "image_url": null
  },
  {
    "name": "Southern Tier Brewing Co",
    "brewery_type": "brewpub",
    "street": "316 N Shore Dr",
    "address_2": null,
    "address_3": null,
    "city": "Pittsburgh",
    "state_province": "Pennsylvania",
    "postal_code": "15212-5870",
    "country": "United States",
    "longitude": -80.008595,
    "latitude": 40.4464115,
    "phone": "4123012337",
    "website_url": "http://www.stbcbeer.com",
    "state": "PA",
    "region": null,
    "amenities": "[]",
    "description": null,
    "hours": "{}",
    "image_url": null
  },
  {
    "name": "Spoonwood Brewing Company",
    "brewery_type": "brewpub",
    "street": "5981 Baptist Rd",
    "address_2": null,
    "address_3": null,
    "city": "Pittsburgh",
    "state_province": "Pennsylvania",
    "postal_code": "15236-3303",
    "country": "United States",
    "longitude": null,
    "latitude": null,
    "phone": "4128330333",
    "website_url": "http://www.spoonwoodbrewing.com",
    "state": "PA",
    "region": null,
    "amenities": "[]",
    "description": null,
    "hours": "{}",
    "image_url": null
  },
  {
    "name": "Sprague Farm and Brew Works",
    "brewery_type": "brewpub",
    "street": "22043 US Highway 6 and 19",
    "address_2": null,
    "address_3": null,
    "city": "Venango",
    "state_province": "Pennsylvania",
    "postal_code": "16440-2507",
    "country": "United States",
    "longitude": null,
    "latitude": null,
    "phone": "8143982885",
    "website_url": "http://www.sleepingchainsaw.com",
    "state": "PA",
    "region": null,
    "amenities": "[]",
    "description": null,
    "hours": "{}",
    "image_url": null
  },
  {
    "name": "Spring Gate Brewery",
    "brewery_type": "micro",
    "street": "5790 Devonshire Rd",
    "address_2": null,
    "address_3": null,
    "city": "Harrisburg",
    "state_province": "Pennsylvania",
    "postal_code": "17112-3508",
    "country": "United States",
    "longitude": null,
    "latitude": null,
    "phone": "7174800066",
    "website_url": "http://www.springgatebrewery.com",
    "state": "PA",
    "region": null,
    "amenities": "[]",
    "description": null,
    "hours": "{}",
    "image_url": null
  },
  {
    "name": "Spring House Brewery",
    "brewery_type": "micro",
    "street": "209 Hazel St",
    "address_2": null,
    "address_3": null,
    "city": "Lancaster",
    "state_province": "Pennsylvania",
    "postal_code": "17603-5629",
    "country": "United States",
    "longitude": -76.30710904,
    "latitude": 40.02936738,
    "phone": "7178720925",
    "website_url": "http://www.springhousebeer.com",
    "state": "PA",
    "region": null,
    "amenities": "[]",
    "description": null,
    "hours": "{}",
    "image_url": null
  },
  {
    "name": "Spring Mountain Brewing Company",
    "brewery_type": "planning",
    "street": null,
    "address_2": null,
    "address_3": null,
    "city": "Schwenksville",
    "state_province": "Pennsylvania",
    "postal_code": "19473-1811",
    "country": "United States",
    "longitude": null,
    "latitude": null,
    "phone": null,
    "website_url": null,
    "state": "PA",
    "region": null,
    "amenities": "[]",
    "description": null,
    "hours": "{}",
    "image_url": null
  },
  {
    "name": "Stable 12 Brewing Company",
    "brewery_type": "brewpub",
    "street": "368 Bridge St",
    "address_2": null,
    "address_3": null,
    "city": "Phoenixville",
    "state_province": "Pennsylvania",
    "postal_code": "19460-3358",
    "country": "United States",
    "longitude": -75.5195231,
    "latitude": 40.1335808,
    "phone": null,
    "website_url": "http://www.stable12.com",
    "state": "PA",
    "region": null,
    "amenities": "[]",
    "description": null,
    "hours": "{}",
    "image_url": null
  },
  {
    "name": "Stargazer Brewing Company",
    "brewery_type": "planning",
    "street": null,
    "address_2": null,
    "address_3": null,
    "city": "Coatesville",
    "state_province": "Pennsylvania",
    "postal_code": "19320",
    "country": "United States",
    "longitude": null,
    "latitude": null,
    "phone": "6102096346",
    "website_url": null,
    "state": "PA",
    "region": null,
    "amenities": "[]",
    "description": null,
    "hours": "{}",
    "image_url": null
  },
  {
    "name": "Sterling Pig Brewery",
    "brewery_type": "brewpub",
    "street": "609 W State St",
    "address_2": null,
    "address_3": null,
    "city": "Media",
    "state_province": "Pennsylvania",
    "postal_code": "19063-2641",
    "country": "United States",
    "longitude": -75.3949477,
    "latitude": 39.918688,
    "phone": "4844442526",
    "website_url": "http://www.sterlingpigbrewery.com",
    "state": "PA",
    "region": null,
    "amenities": "[]",
    "description": null,
    "hours": "{}",
    "image_url": null
  },
  {
    "name": "Stick City Brewing Company",
    "brewery_type": "micro",
    "street": "109 Irvine ST",
    "address_2": null,
    "address_3": null,
    "city": "Mars",
    "state_province": "Pennsylvania",
    "postal_code": "16046-0372",
    "country": "United States",
    "longitude": -80.0095235,
    "latitude": 40.69553485,
    "phone": "7247897849",
    "website_url": "http://www.stickcitybeer.com",
    "state": "PA",
    "region": null,
    "amenities": "[]",
    "description": null,
    "hours": "{}",
    "image_url": null
  },
  {
    "name": "Stickman Brews",
    "brewery_type": "micro",
    "street": "326 N Lewis Rd # 240",
    "address_2": null,
    "address_3": null,
    "city": "Royersford",
    "state_province": "Pennsylvania",
    "postal_code": "19468-1509",
    "country": "United States",
    "longitude": -75.53755464,
    "latitude": 40.2000606,
    "phone": "4849385900",
    "website_url": "http://www.stickmanbrews.com",
    "state": "PA",
    "region": null,
    "amenities": "[]",
    "description": null,
    "hours": "{}",
    "image_url": null
  },
  {
    "name": "Stoker's Brewing Company",
    "brewery_type": "planning",
    "street": null,
    "address_2": null,
    "address_3": null,
    "city": "Tamaqua",
    "state_province": "Pennsylvania",
    "postal_code": "18252-1405",
    "country": "United States",
    "longitude": null,
    "latitude": null,
    "phone": null,
    "website_url": null,
    "state": "PA",
    "region": null,
    "amenities": "[]",
    "description": null,
    "hours": "{}",
    "image_url": null
  },
  {
    "name": "Stone Church Pizza & Brewpub",
    "brewery_type": "brewpub",
    "street": "600 S Hermitage Rd",
    "address_2": null,
    "address_3": null,
    "city": "Hermitage",
    "state_province": "Pennsylvania",
    "postal_code": "16148-3629",
    "country": "United States",
    "longitude": -80.451969,
    "latitude": 41.225649,
    "phone": "7243087770",
    "website_url": "http://www.stonechurchbrewpub.com",
    "state": "PA",
    "region": null,
    "amenities": "[]",
    "description": null,
    "hours": "{}",
    "image_url": null
  },
  {
    "name": "Stoudts Brewing Co",
    "brewery_type": "micro",
    "street": "Â Rt. 272 2800 North Reading Road",
    "address_2": null,
    "address_3": null,
    "city": "Adamstown",
    "state_province": "Pennsylvania",
    "postal_code": "19501",
    "country": "United States",
    "longitude": null,
    "latitude": null,
    "phone": "7174844386",
    "website_url": "http://www.stoudtsbeer.com",
    "state": "PA",
    "region": null,
    "amenities": "[]",
    "description": null,
    "hours": "{}",
    "image_url": null
  },
  {
    "name": "Strange Roots Experimental Ales",
    "brewery_type": "micro",
    "street": "4399 Gibsonia Road",
    "address_2": null,
    "address_3": null,
    "city": "Gibsonia",
    "state_province": "Pennsylvania",
    "postal_code": "15044-9343",
    "country": "United States",
    "longitude": -79.9709659,
    "latitude": 40.6301186,
    "phone": "4124072506",
    "website_url": "http://www.strangerootsbeer.com",
    "state": "PA",
    "region": null,
    "amenities": "[]",
    "description": null,
    "hours": "{}",
    "image_url": null
  },
  {
    "name": "Strange Roots Experimental Ales",
    "brewery_type": "micro",
    "street": "501 E Ohio St",
    "address_2": null,
    "address_3": null,
    "city": "Pittsburgh",
    "state_province": "Pennsylvania",
    "postal_code": "15209-2671",
    "country": "United States",
    "longitude": -79.9951469,
    "latitude": 40.4546063,
    "phone": "4124072506",
    "website_url": "http://www.strangerootsbeer.com",
    "state": "PA",
    "region": null,
    "amenities": "[]",
    "description": null,
    "hours": "{}",
    "image_url": null
  },
  {
    "name": "Straub Brewery",
    "brewery_type": "regional",
    "street": "303 Sorg St",
    "address_2": null,
    "address_3": null,
    "city": "Saint Marys",
    "state_province": "Pennsylvania",
    "postal_code": "15857-1592",
    "country": "United States",
    "longitude": -78.55352821,
    "latitude": 41.42586622,
    "phone": "8143356518",
    "website_url": "http://www.straubbeer.com",
    "state": "PA",
    "region": null,
    "amenities": "[]",
    "description": null,
    "hours": "{}",
    "image_url": null
  },
  {
    "name": "Super Fun Time Brewing Company",
    "brewery_type": "planning",
    "street": null,
    "address_2": null,
    "address_3": null,
    "city": "Bangor",
    "state_province": "Pennsylvania",
    "postal_code": "18013-9244",
    "country": "United States",
    "longitude": null,
    "latitude": null,
    "phone": "6105974402",
    "website_url": null,
    "state": "PA",
    "region": null,
    "amenities": "[]",
    "description": null,
    "hours": "{}",
    "image_url": null
  },
  {
    "name": "Susquehanna Brewing Co",
    "brewery_type": "micro",
    "street": "635 S Main St",
    "address_2": null,
    "address_3": null,
    "city": "Pittston",
    "state_province": "Pennsylvania",
    "postal_code": "18640-3215",
    "country": "United States",
    "longitude": -75.7912216,
    "latitude": 41.321577,
    "phone": "5706543557",
    "website_url": "http://www.sbcbeer.com",
    "state": "PA",
    "region": null,
    "amenities": "[]",
    "description": null,
    "hours": "{}",
    "image_url": null
  },
  {
    "name": "Swashbuckler Brewing Co",
    "brewery_type": "micro",
    "street": "2775 Lebanon Rd",
    "address_2": null,
    "address_3": null,
    "city": "Manheim",
    "state_province": "Pennsylvania",
    "postal_code": "17545-8711",
    "country": "United States",
    "longitude": null,
    "latitude": null,
    "phone": "7176657021",
    "website_url": "http://www.parenfaire.com",
    "state": "PA",
    "region": null,
    "amenities": "[]",
    "description": null,
    "hours": "{}",
    "image_url": null
  },
  {
    "name": "Tannery Run Brew Works",
    "brewery_type": "planning",
    "street": null,
    "address_2": null,
    "address_3": null,
    "city": "Ambler",
    "state_province": "Pennsylvania",
    "postal_code": "19002-4407",
    "country": "United States",
    "longitude": null,
    "latitude": null,
    "phone": "2156131113",
    "website_url": "http://www.tanneryrun.com",
    "state": "PA",
    "region": null,
    "amenities": "[]",
    "description": null,
    "hours": "{}",
    "image_url": null
  },
  {
    "name": "Tattered Flag Brewery",
    "brewery_type": "brewpub",
    "street": "1 S Union St",
    "address_2": null,
    "address_3": null,
    "city": "Middletown",
    "state_province": "Pennsylvania",
    "postal_code": "17057-1446",
    "country": "United States",
    "longitude": -76.731309,
    "latitude": 40.194934,
    "phone": "7176168799",
    "website_url": "http://www.tatteredflagbsw.com",
    "state": "PA",
    "region": null,
    "amenities": "[]",
    "description": null,
    "hours": "{}",
    "image_url": null
  },
  {
    "name": "Taylor House Brewing Co",
    "brewery_type": "micro",
    "street": "76 Lehigh St",
    "address_2": null,
    "address_3": null,
    "city": "Catasauqua",
    "state_province": "Pennsylvania",
    "postal_code": "18032",
    "country": "United States",
    "longitude": -75.46805342,
    "latitude": 40.64817832,
    "phone": null,
    "website_url": "http://www.taylorhousebrewing.com",
    "state": "PA",
    "region": null,
    "amenities": "[]",
    "description": null,
    "hours": "{}",
    "image_url": null
  },
  {
    "name": "The Barley House Brewing Company LLC",
    "brewery_type": "brewpub",
    "street": "8399 Sharon Mercer Rd",
    "address_2": null,
    "address_3": null,
    "city": "Mercer",
    "state_province": "Pennsylvania",
    "postal_code": "16137",
    "country": "United States",
    "longitude": -80.265315,
    "latitude": 41.225933,
    "phone": "7242697837",
    "website_url": "http://www.barleyhousebrewing.com",
    "state": "PA",
    "region": null,
    "amenities": "[]",
    "description": null,
    "hours": "{}",
    "image_url": null
  },
  {
    "name": "The Brewery At Hershey",
    "brewery_type": "micro",
    "street": "598 Schoolhouse Rd",
    "address_2": null,
    "address_3": null,
    "city": "Middletown",
    "state_province": "Pennsylvania",
    "postal_code": "17057-4029",
    "country": "United States",
    "longitude": null,
    "latitude": null,
    "phone": "7179441569",
    "website_url": "http://www.vineyardathershey.com",
    "state": "PA",
    "region": null,
    "amenities": "[]",
    "description": null,
    "hours": "{}",
    "image_url": null
  },
  {
    "name": "The Brewery BÃ¶ser Geist Brewing Co., LLC",
    "brewery_type": "micro",
    "street": "1250 Simon Blvd Unit K100",
    "address_2": null,
    "address_3": null,
    "city": "Easton",
    "state_province": "Pennsylvania",
    "postal_code": "18042-1474",
    "country": "United States",
    "longitude": null,
    "latitude": null,
    "phone": "4842938005",
    "website_url": null,
    "state": "PA",
    "region": null,
    "amenities": "[]",
    "description": null,
    "hours": "{}",
    "image_url": null
  },
  {
    "name": "The Harmony Inn",
    "brewery_type": "brewpub",
    "street": "230 Mercer St",
    "address_2": null,
    "address_3": null,
    "city": "Harmony",
    "state_province": "Pennsylvania",
    "postal_code": "16037-6812",
    "country": "United States",
    "longitude": -80.12650213,
    "latitude": 40.8029435,
    "phone": null,
    "website_url": null,
    "state": "PA",
    "region": null,
    "amenities": "[]",
    "description": null,
    "hours": "{}",
    "image_url": null
  },
  {
    "name": "The Millworks Brewery",
    "brewery_type": "brewpub",
    "street": "340 Verbeke St",
    "address_2": null,
    "address_3": null,
    "city": "Harrisburg",
    "state_province": "Pennsylvania",
    "postal_code": "17102-2052",
    "country": "United States",
    "longitude": -76.8874206,
    "latitude": 40.270538,
    "phone": "7176954888",
    "website_url": "http://www.millworksharrisburg.com",
    "state": "PA",
    "region": null,
    "amenities": "[]",
    "description": null,
    "hours": "{}",
    "image_url": null
  },
  {
    "name": "The North Slope Brewing Company",
    "brewery_type": "brewpub",
    "street": "2439 Sr 309 Hwy",
    "address_2": null,
    "address_3": null,
    "city": "Dallas",
    "state_province": "Pennsylvania",
    "postal_code": "18612-9251",
    "country": "United States",
    "longitude": null,
    "latitude": null,
    "phone": "5702554012",
    "website_url": "http://www.northslopebrewing.com",
    "state": "PA",
    "region": null,
    "amenities": "[]",
    "description": null,
    "hours": "{}",
    "image_url": null
  },
  {
    "name": "The Other Farm Brewing Company",
    "brewery_type": "brewpub",
    "street": "128 E Philadelphia Ave Ste 1",
    "address_2": null,
    "address_3": null,
    "city": "Boyertown",
    "state_province": "Pennsylvania",
    "postal_code": "19512-1161",
    "country": "United States",
    "longitude": null,
    "latitude": null,
    "phone": "4844150741",
    "website_url": "http://www.theotherfarmbrewingcompany.com",
    "state": "PA",
    "region": null,
    "amenities": "[]",
    "description": null,
    "hours": "{}",
    "image_url": null
  },
  {
    "name": "The Proper Brewing Company",
    "brewery_type": "brewpub",
    "street": "117 W Broad St",
    "address_2": null,
    "address_3": null,
    "city": "Quakertown",
    "state_province": "Pennsylvania",
    "postal_code": "18951-1200",
    "country": "United States",
    "longitude": -75.34137437,
    "latitude": 40.44177523,
    "phone": "2674905168",
    "website_url": "http://www.theproperbrewing.com",
    "state": "PA",
    "region": null,
    "amenities": "[]",
    "description": null,
    "hours": "{}",
    "image_url": null
  },
  {
    "name": "The Vegetable Hunter",
    "brewery_type": "brewpub",
    "street": "614 N 2nd St",
    "address_2": null,
    "address_3": null,
    "city": "Harrisburg",
    "state_province": "Pennsylvania",
    "postal_code": "17101-1001",
    "country": "United States",
    "longitude": -76.8881545,
    "latitude": 40.2638045,
    "phone": "7176956229",
    "website_url": "http://www.TheVegetableHunter.com",
    "state": "PA",
    "region": null,
    "amenities": "[]",
    "description": null,
    "hours": "{}",
    "image_url": null
  },
  {
    "name": "Thirsty Farmer Brew Works",
    "brewery_type": "brewpub",
    "street": "290 Cashtown Road",
    "address_2": null,
    "address_3": null,
    "city": "Biglerville",
    "state_province": "Pennsylvania",
    "postal_code": "17307",
    "country": "United States",
    "longitude": null,
    "latitude": null,
    "phone": "7176778842",
    "website_url": null,
    "state": "PA",
    "region": null,
    "amenities": "[]",
    "description": null,
    "hours": "{}",
    "image_url": null
  },
  {
    "name": "Timber Creek Tap & Table",
    "brewery_type": "brewpub",
    "street": "11191 Highline Dr",
    "address_2": null,
    "address_3": null,
    "city": "Meadville",
    "state_province": "Pennsylvania",
    "postal_code": "16335-6589",
    "country": "United States",
    "longitude": null,
    "latitude": null,
    "phone": "8148071005",
    "website_url": "http://www.timbercreektapandtable.com",
    "state": "PA",
    "region": null,
    "amenities": "[]",
    "description": null,
    "hours": "{}",
    "image_url": null
  },
  {
    "name": "Tin Lizard Brewing Co",
    "brewery_type": "brewpub",
    "street": "1000 W Lancaster Ave",
    "address_2": null,
    "address_3": null,
    "city": "Bryn Mawr",
    "state_province": "Pennsylvania",
    "postal_code": "19010-2611",
    "country": "United States",
    "longitude": -75.322789,
    "latitude": 40.023568,
    "phone": "6105251100",
    "website_url": "http://www.tinlizardbrewingco.com",
    "state": "PA",
    "region": null,
    "amenities": "[]",
    "description": null,
    "hours": "{}",
    "image_url": null
  },
  {
    "name": "Tired Hands Brewing Co",
    "brewery_type": "brewpub",
    "street": "16 Ardmore Ave",
    "address_2": null,
    "address_3": null,
    "city": "Ardmore",
    "state_province": "Pennsylvania",
    "postal_code": "19003-1302",
    "country": "United States",
    "longitude": -75.2936914,
    "latitude": 40.0086029,
    "phone": "6108967621",
    "website_url": "http://www.tiredhands.com",
    "state": "PA",
    "region": null,
    "amenities": "[]",
    "description": null,
    "hours": "{}",
    "image_url": null
  },
  {
    "name": "Tired Hands Brewing Co",
    "brewery_type": "brewpub",
    "street": "35 S Cricket Ter",
    "address_2": null,
    "address_3": null,
    "city": "Ardmore",
    "state_province": "Pennsylvania",
    "postal_code": "19003-2203",
    "country": "United States",
    "longitude": -75.29076729,
    "latitude": 40.00683337,
    "phone": "4844132983",
    "website_url": "http://www.tiredhands.com",
    "state": "PA",
    "region": null,
    "amenities": "[]",
    "description": null,
    "hours": "{}",
    "image_url": null
  },
  {
    "name": "Towerhill Brewery",
    "brewery_type": "brewpub",
    "street": "237 W Butler Ave",
    "address_2": null,
    "address_3": null,
    "city": "Chalfont",
    "state_province": "Pennsylvania",
    "postal_code": "18914-3020",
    "country": "United States",
    "longitude": -75.21378231,
    "latitude": 40.27984378,
    "phone": "2158228788",
    "website_url": "http://www.towerhillbrewery.com",
    "state": "PA",
    "region": null,
    "amenities": "[]",
    "description": null,
    "hours": "{}",
    "image_url": null
  },
  {
    "name": "Triumph Brewing Co of New Hope",
    "brewery_type": "brewpub",
    "street": "400 Union Square Dr",
    "address_2": null,
    "address_3": null,
    "city": "New Hope",
    "state_province": "Pennsylvania",
    "postal_code": "18938-1367",
    "country": "United States",
    "longitude": null,
    "latitude": null,
    "phone": "2158628300",
    "website_url": "http://www.triumphbrew.com",
    "state": "PA",
    "region": null,
    "amenities": "[]",
    "description": null,
    "hours": "{}",
    "image_url": null
  },
  {
    "name": "Troegs Brewing Co",
    "brewery_type": "regional",
    "street": "200 E Hershey Park Dr",
    "address_2": null,
    "address_3": null,
    "city": "Hershey",
    "state_province": "Pennsylvania",
    "postal_code": "17033-2719",
    "country": "United States",
    "longitude": null,
    "latitude": null,
    "phone": "7175341297",
    "website_url": "http://www.troegs.com",
    "state": "PA",
    "region": null,
    "amenities": "[]",
    "description": null,
    "hours": "{}",
    "image_url": null
  },
  {
    "name": "Trolley Barn Brewery",
    "brewery_type": "planning",
    "street": null,
    "address_2": null,
    "address_3": null,
    "city": "Quakertown",
    "state_province": "Pennsylvania",
    "postal_code": "18951",
    "country": "United States",
    "longitude": null,
    "latitude": null,
    "phone": "2154998959",
    "website_url": "http://www.trolleybarnpublicmarket.com",
    "state": "PA",
    "region": null,
    "amenities": "[]",
    "description": null,
    "hours": "{}",
    "image_url": null
  },
  {
    "name": "Tuned Up Brewing Company",
    "brewery_type": "micro",
    "street": "135 N Main St",
    "address_2": null,
    "address_3": null,
    "city": "Spring City",
    "state_province": "Pennsylvania",
    "postal_code": "19475-1874",
    "country": "United States",
    "longitude": -75.54752163,
    "latitude": 40.17990279,
    "phone": "6103063182",
    "website_url": null,
    "state": "PA",
    "region": null,
    "amenities": "[]",
    "description": null,
    "hours": "{}",
    "image_url": null
  },
  {
    "name": "Turkey Hill Brewing Co Pub",
    "brewery_type": "brewpub",
    "street": "991 Central Rd",
    "address_2": null,
    "address_3": null,
    "city": "Bloomsburg",
    "state_province": "Pennsylvania",
    "postal_code": "17815-8990",
    "country": "United States",
    "longitude": null,
    "latitude": null,
    "phone": "5703878422",
    "website_url": "http://www.turkeyhillbrewing.com",
    "state": "PA",
    "region": null,
    "amenities": "[]",
    "description": null,
    "hours": "{}",
    "image_url": null
  },
  {
    "name": "Twisted Bine Beer Co.",
    "brewery_type": "planning",
    "street": null,
    "address_2": null,
    "address_3": null,
    "city": "Mount Joy",
    "state_province": "Pennsylvania",
    "postal_code": "17552-1424",
    "country": "United States",
    "longitude": null,
    "latitude": null,
    "phone": "7179178577",
    "website_url": null,
    "state": "PA",
    "region": null,
    "amenities": "[]",
    "description": null,
    "hours": "{}",
    "image_url": null
  },
  {
    "name": "Two Rivers Brewing Co",
    "brewery_type": "brewpub",
    "street": "542 Northampton St",
    "address_2": null,
    "address_3": null,
    "city": "Easton",
    "state_province": "Pennsylvania",
    "postal_code": "18042-3517",
    "country": "United States",
    "longitude": -75.214292,
    "latitude": 40.69072655,
    "phone": "6108291131",
    "website_url": "http://www.tworiversbrewing.com",
    "state": "PA",
    "region": null,
    "amenities": "[]",
    "description": null,
    "hours": "{}",
    "image_url": null
  },
  {
    "name": "Union Barrel Works",
    "brewery_type": "brewpub",
    "street": "6 N Reamstown Rd",
    "address_2": null,
    "address_3": null,
    "city": "Stevens",
    "state_province": "Pennsylvania",
    "postal_code": "17578",
    "country": "United States",
    "longitude": null,
    "latitude": null,
    "phone": "7173357837",
    "website_url": null,
    "state": "PA",
    "region": null,
    "amenities": "[]",
    "description": null,
    "hours": "{}",
    "image_url": null
  },
  {
    "name": "Urban Village Brewing Company",
    "brewery_type": "brewpub",
    "street": "1001 N 2nd St",
    "address_2": null,
    "address_3": null,
    "city": "Philadelphia",
    "state_province": "Pennsylvania",
    "postal_code": "19123-1612",
    "country": "United States",
    "longitude": -75.1400237,
    "latitude": 39.9662701,
    "phone": "2676871961",
    "website_url": "http://www.urbanvillagebrewing.com",
    "state": "PA",
    "region": null,
    "amenities": "[]",
    "description": null,
    "hours": "{}",
    "image_url": null
  },
  {
    "name": "Vault Brewing Co",
    "brewery_type": "brewpub",
    "street": "10 S Main St",
    "address_2": null,
    "address_3": null,
    "city": "Morrisville",
    "state_province": "Pennsylvania",
    "postal_code": "19067-1511",
    "country": "United States",
    "longitude": null,
    "latitude": null,
    "phone": "2675734291",
    "website_url": "http://www.vaultbrewing.com",
    "state": "PA",
    "region": null,
    "amenities": "[]",
    "description": null,
    "hours": "{}",
    "image_url": null
  },
  {
    "name": "Victory Brewing Co",
    "brewery_type": "regional",
    "street": "420 Acorn Ln",
    "address_2": null,
    "address_3": null,
    "city": "Downingtown",
    "state_province": "Pennsylvania",
    "postal_code": "19335-3040",
    "country": "United States",
    "longitude": null,
    "latitude": null,
    "phone": "6108730881",
    "website_url": "http://www.victorybeer.com",
    "state": "PA",
    "region": null,
    "amenities": "[]",
    "description": null,
    "hours": "{}",
    "image_url": null
  },
  {
    "name": "Victory Brewing Co",
    "brewery_type": "brewpub",
    "street": "650 W Cypress St Ste 1",
    "address_2": null,
    "address_3": null,
    "city": "Kennett Square",
    "state_province": "Pennsylvania",
    "postal_code": "19348-3059",
    "country": "United States",
    "longitude": null,
    "latitude": null,
    "phone": "4847301870",
    "website_url": "http://www.victorybeer.com",
    "state": "PA",
    "region": null,
    "amenities": "[]",
    "description": null,
    "hours": "{}",
    "image_url": null
  },
  {
    "name": "Victory Brewing Co",
    "brewery_type": "regional",
    "street": "3127 Lower Valley Rd",
    "address_2": null,
    "address_3": null,
    "city": "Parkesburg",
    "state_province": "Pennsylvania",
    "postal_code": "19365-9617",
    "country": "United States",
    "longitude": null,
    "latitude": null,
    "phone": "6108730881",
    "website_url": "http://www.victorybeer.com",
    "state": "PA",
    "region": null,
    "amenities": "[]",
    "description": null,
    "hours": "{}",
    "image_url": null
  },
  {
    "name": "Voodoo Brewing Co",
    "brewery_type": "brewpub",
    "street": "215 1/2 Arch St",
    "address_2": null,
    "address_3": null,
    "city": "Meadville",
    "state_province": "Pennsylvania",
    "postal_code": "16335-3432",
    "country": "United States",
    "longitude": -80.154209,
    "latitude": 41.637124,
    "phone": "8143373676",
    "website_url": "http://www.voodoobrewery.com",
    "state": "PA",
    "region": null,
    "amenities": "[]",
    "description": null,
    "hours": "{}",
    "image_url": null
  },
  {
    "name": "Voodoo Brewing Production Facility",
    "brewery_type": "brewpub",
    "street": "834 Bessemer St",
    "address_2": null,
    "address_3": null,
    "city": "Meadville",
    "state_province": "Pennsylvania",
    "postal_code": "16335",
    "country": "United States",
    "longitude": -80.15610217,
    "latitude": 41.64610467,
    "phone": "8143339123",
    "website_url": null,
    "state": "PA",
    "region": null,
    "amenities": "[]",
    "description": null,
    "hours": "{}",
    "image_url": null
  },
  {
    "name": "Wacker Brewing Co",
    "brewery_type": "micro",
    "street": "417 W Grant St",
    "address_2": null,
    "address_3": null,
    "city": "Lancaster",
    "state_province": "Pennsylvania",
    "postal_code": "17603",
    "country": "United States",
    "longitude": -76.31365439,
    "latitude": 40.03799427,
    "phone": "7176172711",
    "website_url": "http://www.wackerbrewing.com",
    "state": "PA",
    "region": null,
    "amenities": "[]",
    "description": null,
    "hours": "{}",
    "image_url": null
  },
  {
    "name": "Wallenpaupack Brewing Company",
    "brewery_type": "brewpub",
    "street": "73 Welwood Ave",
    "address_2": null,
    "address_3": null,
    "city": "Hawley",
    "state_province": "Pennsylvania",
    "postal_code": "18428-1500",
    "country": "United States",
    "longitude": -75.17619182,
    "latitude": 41.46873956,
    "phone": "5703907933",
    "website_url": "http://www.wallenpaupackbrewingco.com",
    "state": "PA",
    "region": null,
    "amenities": "[]",
    "description": null,
    "hours": "{}",
    "image_url": null
  },
  {
    "name": "Warehouse Gourmet Bistro & Brew Pub",
    "brewery_type": "micro",
    "street": "7 Pennsylvania Ave",
    "address_2": null,
    "address_3": null,
    "city": "Hanover",
    "state_province": "Pennsylvania",
    "postal_code": "17331-2432",
    "country": "United States",
    "longitude": -76.98976977,
    "latitude": 39.80232948,
    "phone": "7174519898",
    "website_url": "http://www.warehousegourmet.net",
    "state": "PA",
    "region": null,
    "amenities": "[]",
    "description": null,
    "hours": "{}",
    "image_url": null
  },
  {
    "name": "Washington Brewing Co",
    "brewery_type": "brewpub",
    "street": "28 E Maiden St",
    "address_2": null,
    "address_3": null,
    "city": "Washington",
    "state_province": "Pennsylvania",
    "postal_code": "15301-4912",
    "country": "United States",
    "longitude": -80.02076781,
    "latitude": 40.07308431,
    "phone": "7242225050",
    "website_url": "http://thewashingtonbrewingcompany.com",
    "state": "PA",
    "region": null,
    "amenities": "[]",
    "description": null,
    "hours": "{}",
    "image_url": null
  },
  {
    "name": "Western Pennsylvania Brewing Co",
    "brewery_type": "regional",
    "street": "119 Jefferson St",
    "address_2": null,
    "address_3": null,
    "city": "Latrobe",
    "state_province": "Pennsylvania",
    "postal_code": "15650",
    "country": "United States",
    "longitude": -79.38989645,
    "latitude": 40.31903018,
    "phone": null,
    "website_url": "http://www.citybreiwng.com",
    "state": "PA",
    "region": null,
    "amenities": "[]",
    "description": null,
    "hours": "{}",
    "image_url": null
  },
  {
    "name": "Weyerbacher Brewing Co",
    "brewery_type": "regional",
    "street": "905 Line St Ste G",
    "address_2": null,
    "address_3": null,
    "city": "Easton",
    "state_province": "Pennsylvania",
    "postal_code": "18042-7379",
    "country": "United States",
    "longitude": null,
    "latitude": null,
    "phone": "6105595561",
    "website_url": "http://www.weyerbacher.com",
    "state": "PA",
    "region": null,
    "amenities": "[]",
    "description": null,
    "hours": "{}",
    "image_url": null
  },
  {
    "name": "White Clay Brewing Company",
    "brewery_type": "planning",
    "street": null,
    "address_2": null,
    "address_3": null,
    "city": "Landenberg",
    "state_province": "Pennsylvania",
    "postal_code": "19350-1540",
    "country": "United States",
    "longitude": null,
    "latitude": null,
    "phone": null,
    "website_url": null,
    "state": "PA",
    "region": null,
    "amenities": "[]",
    "description": null,
    "hours": "{}",
    "image_url": null
  },
  {
    "name": "Whitehorse Brewing LLC",
    "brewery_type": "micro",
    "street": "824 Diamond St",
    "address_2": null,
    "address_3": null,
    "city": "Berlin",
    "state_province": "Pennsylvania",
    "postal_code": "15530-1539",
    "country": "United States",
    "longitude": -78.95695707,
    "latitude": 39.92530586,
    "phone": "8144442436",
    "website_url": null,
    "state": "PA",
    "region": null,
    "amenities": "[]",
    "description": null,
    "hours": "{}",
    "image_url": null
  },
  {
    "name": "Wissahickon Brewing Company",
    "brewery_type": "micro",
    "street": "3705 W School House Ln",
    "address_2": null,
    "address_3": null,
    "city": "Philadelphia",
    "state_province": "Pennsylvania",
    "postal_code": "19129-1738",
    "country": "United States",
    "longitude": -75.20047033,
    "latitude": 40.013655,
    "phone": "2154838833",
    "website_url": "http://www.wissahickonbrew.com",
    "state": "PA",
    "region": null,
    "amenities": "[]",
    "description": null,
    "hours": "{}",
    "image_url": null
  },
  {
    "name": "Wolf Brewing Company",
    "brewery_type": "planning",
    "street": null,
    "address_2": null,
    "address_3": null,
    "city": "Harrisburg",
    "state_province": "Pennsylvania",
    "postal_code": "17112-1550",
    "country": "United States",
    "longitude": null,
    "latitude": null,
    "phone": "7176452752",
    "website_url": "http://www.wolfbrewingco.com",
    "state": "PA",
    "region": null,
    "amenities": "[]",
    "description": null,
    "hours": "{}",
    "image_url": null
  },
  {
    "name": "Wyndridge Farm Brewing",
    "brewery_type": "brewpub",
    "street": "885 S Pleasant Ave",
    "address_2": null,
    "address_3": null,
    "city": "Dallastown",
    "state_province": "Pennsylvania",
    "postal_code": "17313-9650",
    "country": "United States",
    "longitude": -76.644864,
    "latitude": 39.893878,
    "phone": "7172449900",
    "website_url": "http://www.wyndridge.com",
    "state": "PA",
    "region": null,
    "amenities": "[]",
    "description": null,
    "hours": "{}",
    "image_url": null
  },
  {
    "name": "Yards Brewing Co",
    "brewery_type": "regional",
    "street": "901 N Delaware Ave",
    "address_2": null,
    "address_3": null,
    "city": "Philadelphia",
    "state_province": "Pennsylvania",
    "postal_code": "19123-3110",
    "country": "United States",
    "longitude": -75.1324016,
    "latitude": 39.9655175,
    "phone": "2156342600",
    "website_url": "http://www.yardsbrewing.com",
    "state": "PA",
    "region": null,
    "amenities": "[]",
    "description": null,
    "hours": "{}",
    "image_url": null
  },
  {
    "name": "Yellow Bridge Brewing Co.",
    "brewery_type": "micro",
    "street": "2266 Route 66",
    "address_2": null,
    "address_3": null,
    "city": "Delmont",
    "state_province": "Pennsylvania",
    "postal_code": "15626-1461",
    "country": "United States",
    "longitude": null,
    "latitude": null,
    "phone": "7243003922",
    "website_url": "http://www.yellowbridgebrewing.com",
    "state": "PA",
    "region": null,
    "amenities": "[]",
    "description": null,
    "hours": "{}",
    "image_url": null
  },
  {
    "name": "Yergey Brewing",
    "brewery_type": "micro",
    "street": "518B Bank St",
    "address_2": null,
    "address_3": null,
    "city": "Emmaus",
    "state_province": "Pennsylvania",
    "postal_code": "18049-2008",
    "country": "United States",
    "longitude": -75.49366592,
    "latitude": 40.53379322,
    "phone": "6104172804",
    "website_url": "http://yergeybrewing.com",
    "state": "PA",
    "region": null,
    "amenities": "[]",
    "description": null,
    "hours": "{}",
    "image_url": null
  },
  {
    "name": "Yorkholo Brewing Co",
    "brewery_type": "brewpub",
    "street": "19 N Main St",
    "address_2": null,
    "address_3": null,
    "city": "Mansfield",
    "state_province": "Pennsylvania",
    "postal_code": "16933-1403",
    "country": "United States",
    "longitude": -77.07838707,
    "latitude": 41.80758509,
    "phone": "5704045805",
    "website_url": "http://www.yorkholobrewing.com",
    "state": "PA",
    "region": null,
    "amenities": "[]",
    "description": null,
    "hours": "{}",
    "image_url": null
  },
  {
    "name": "Young's Brewing",
    "brewery_type": "planning",
    "street": null,
    "address_2": null,
    "address_3": null,
    "city": "Wexford",
    "state_province": "Pennsylvania",
    "postal_code": "15090",
    "country": "United States",
    "longitude": null,
    "latitude": null,
    "phone": null,
    "website_url": null,
    "state": "PA",
    "region": null,
    "amenities": "[]",
    "description": null,
    "hours": "{}",
    "image_url": null
  },
  {
    "name": "Zeroday Brewing Company",
    "brewery_type": "brewpub",
    "street": "250 Reily St Ste 103",
    "address_2": null,
    "address_3": null,
    "city": "Harrisburg",
    "state_province": "Pennsylvania",
    "postal_code": "17102-2550",
    "country": "United States",
    "longitude": -76.8915931,
    "latitude": 40.2717061,
    "phone": "7177456218",
    "website_url": "http://www.zerodaybrewing.com",
    "state": "PA",
    "region": null,
    "amenities": "[]",
    "description": null,
    "hours": "{}",
    "image_url": null
  }
]