[
  {
    "name": "Abolitionist Ale Works",
    "brewery_type": "brewpub",
    "street": "129 W Washington St",
    "address_2": null,
    "address_3": null,
    "city": "Charles Town",
    "state_province": "West Virginia",
    "postal_code": "25414-1529",
    "country": "United States",
    "longitude": -77.8607888,
    "latitude": 39.28867207,
    "phone": "6812521548",
    "website_url": "http://www.abolitionistaleworks.com",
    "state": "WV",
    "region": null,
    "amenities": "[]",
    "description": null,
    "hours": "{}",
    "image_url": null
  },
  {
    "name": "Amani Brewing",
    "brewery_type": "brewpub",
    "street": "654 Ropp Dr",
    "address_2": null,
    "address_3": null,
    "city": "Martinsburg",
    "state_province": "West Virginia",
    "postal_code": "25403-1533",
    "country": "United States",
    "longitude": -77.949602,
    "latitude": 39.5332966,
    "phone": "3042793861",
    "website_url": "https://amanibrewing.com",
    "state": "WV",
    "region": null,
    "amenities": "[]",
    "description": null,
    "hours": "{}",
    "image_url": null
  },
  {
    "name": "Bad Shepherd Beer Company",
    "brewery_type": "brewpub",
    "street": "702 Quarrier St",
    "address_2": null,
    "address_3": null,
    "city": "Charleston",
    "state_province": "West Virginia",
    "postal_code": "25301-2627",
    "country": "United States",
    "longitude": -81.63612015,
    "latitude": 38.35094943,
    "phone": "3045527569",
    "website_url": "http://www.blacksheepwv.com",
    "state": "WV",
    "region": null,
    "amenities": "[]",
    "description": null,
    "hours": "{}",
    "image_url": null
  },
  {
    "name": "Banjo Brewing",
    "brewery_type": "closed",
    "street": null,
    "address_2": null,
    "address_3": null,
    "city": "Fayetteville",
    "state_province": "West Virginia",
    "postal_code": "25840",
    "country": "United States",
    "longitude": null,
    "latitude": null,
    "phone": "3042164231",
    "website_url": null,
    "state": "WV",
    "region": null,
    "amenities": "[]",
    "description": null,
    "hours": "{}",
    "image_url": null
  },
  {
    "name": "Banning's Inc",
    "brewery_type": "micro",
    "street": "620 Water St",
    "address_2": null,
    "address_3": null,
    "city": "Summersville",
    "state_province": "West Virginia",
    "postal_code": "26651-1453",
    "country": "United States",
    "longitude": -80.85147552,
    "latitude": 38.281623,
    "phone": "3046196972",
    "website_url": null,
    "state": "WV",
    "region": null,
    "amenities": "[]",
    "description": null,
    "hours": "{}",
    "image_url": null
  },
  {
    "name": "Bavarian Brothers Brewing",
    "brewery_type": "brewpub",
    "street": "164 Shepherd Grade Rd",
    "address_2": null,
    "address_3": null,
    "city": "Shepherdstown",
    "state_province": "West Virginia",
    "postal_code": "25443-4601",
    "country": "United States",
    "longitude": -77.804886,
    "latitude": 39.436699,
    "phone": "3048762551",
    "website_url": null,
    "state": "WV",
    "region": null,
    "amenities": "[]",
    "description": null,
    "hours": "{}",
    "image_url": null
  },
  {
    "name": "Berkeley Springs Brewing Co",
    "brewery_type": "brewpub",
    "street": "110 Michigan Ln",
    "address_2": null,
    "address_3": null,
    "city": "Berkeley Springs",
    "state_province": "West Virginia",
    "postal_code": "25411-3008",
    "country": "United States",
    "longitude": -78.271156,
    "latitude": 39.576782,
    "phone": "3042583369",
    "website_url": "http://www.berkeleyspringsbrewingcompany.com",
    "state": "WV",
    "region": null,
    "amenities": "[]",
    "description": null,
    "hours": "{}",
    "image_url": null
  },
  {
    "name": "Big Draft Brewing",
    "brewery_type": "micro",
    "street": "697 Main St E",
    "address_2": null,
    "address_3": null,
    "city": "White Sulphur Springs",
    "state_province": "West Virginia",
    "postal_code": "24986-3003",
    "country": "United States",
    "longitude": -80.3001175,
    "latitude": 37.7945598,
    "phone": "3049152442",
    "website_url": "https://bigdraftbrewing.com/",
    "state": "WV",
    "region": null,
    "amenities": "[]",
    "description": null,
    "hours": "{}",
    "image_url": null
  },
  {
    "name": "Big Timber Brewing",
    "brewery_type": "micro",
    "street": "1210 S Davis Ave",
    "address_2": null,
    "address_3": null,
    "city": "Elkins",
    "state_province": "West Virginia",
    "postal_code": "26241-3437",
    "country": "United States",
    "longitude": -79.85143109,
    "latitude": 38.91765609,
    "phone": "3046375008",
    "website_url": "http://www.bigtimberbrewing.com",
    "state": "WV",
    "region": null,
    "amenities": "[]",
    "description": null,
    "hours": "{}",
    "image_url": null
  },
  {
    "name": "Blackwater Brewing Co",
    "brewery_type": "micro",
    "street": "912 William Ave",
    "address_2": null,
    "address_3": null,
    "city": "Davis",
    "state_province": "West Virginia",
    "postal_code": "26260-0356",
    "country": "United States",
    "longitude": -79.4695264,
    "latitude": 39.1274943,
    "phone": "3042098118",
    "website_url": "http://www.BlackwaterBrewingWV.com",
    "state": "WV",
    "region": null,
    "amenities": "[]",
    "description": null,
    "hours": "{}",
    "image_url": null
  },
  {
    "name": "Brew Keepers",
    "brewery_type": "micro",
    "street": "2245 Market St",
    "address_2": null,
    "address_3": null,
    "city": "Wheeling",
    "state_province": "West Virginia",
    "postal_code": "26003-2866",
    "country": "United States",
    "longitude": -80.724774,
    "latitude": 40.059259,
    "phone": "7248098968",
    "website_url": "https://www.facebook.com/BrewKeepers",
    "state": "WV",
    "region": null,
    "amenities": "[]",
    "description": null,
    "hours": "{}",
    "image_url": null
  },
  {
    "name": "Brewstel",
    "brewery_type": "micro",
    "street": "120 Davis Ave",
    "address_2": null,
    "address_3": null,
    "city": "Elkins",
    "state_province": "West Virginia",
    "postal_code": "26241-3812",
    "country": "United States",
    "longitude": -79.849588,
    "latitude": 38.923407,
    "phone": "3049974769",
    "website_url": "http://www.brewstel.com",
    "state": "WV",
    "region": null,
    "amenities": "[]",
    "description": null,
    "hours": "{}",
    "image_url": null
  },
  {
    "name": "Bridge Brew Works",
    "brewery_type": "micro",
    "street": "335 Nick Rahall Greenway",
    "address_2": null,
    "address_3": null,
    "city": "Fayetteville",
    "state_province": "West Virginia",
    "postal_code": "25840-1617",
    "country": "United States",
    "longitude": -81.113708,
    "latitude": 38.0164353,
    "phone": "3042822201",
    "website_url": "http://www.bridgebrewworks.com",
    "state": "WV",
    "region": null,
    "amenities": "[]",
    "description": null,
    "hours": "{}",
    "image_url": null
  },
  {
    "name": "Cacapon Mountain Brewing Co",
    "brewery_type": "micro",
    "street": "42 Williams St",
    "address_2": null,
    "address_3": null,
    "city": "Berkeley Springs",
    "state_province": "West Virginia",
    "postal_code": "25411-5306",
    "country": "United States",
    "longitude": -78.234601495241,
    "latitude": 39.690778971971,
    "phone": null,
    "website_url": "http://www.cacaponbrewing.com",
    "state": "WV",
    "region": null,
    "amenities": "[]",
    "description": null,
    "hours": "{}",
    "image_url": null
  },
  {
    "name": "Charleston Nano Brewery",
    "brewery_type": "nano",
    "street": "320 W Washington St",
    "address_2": null,
    "address_3": null,
    "city": "Charleston",
    "state_province": "West Virginia",
    "postal_code": "25302-2231",
    "country": "United States",
    "longitude": -81.61537541623,
    "latitude": 38.377733897225,
    "phone": "3043437289",
    "website_url": "http://www.charlestonnano.com",
    "state": "WV",
    "region": null,
    "amenities": "[]",
    "description": null,
    "hours": "{}",
    "image_url": null
  },
  {
    "name": "Chestnut Brew Works",
    "brewery_type": "micro",
    "street": "444 Brockway Ave",
    "address_2": null,
    "address_3": null,
    "city": "Morgantown",
    "state_province": "West Virginia",
    "postal_code": "26501",
    "country": "United States",
    "longitude": -79.9507513,
    "latitude": 39.6272755,
    "phone": "3042762737",
    "website_url": "http://www.chestnutbrewworks.com",
    "state": "WV",
    "region": null,
    "amenities": "[]",
    "description": null,
    "hours": "{}",
    "image_url": null
  },
  {
    "name": "Clendenin Brewing Co",
    "brewery_type": "micro",
    "street": "2 Main St",
    "address_2": null,
    "address_3": null,
    "city": "Clendenin",
    "state_province": "West Virginia",
    "postal_code": "25045-1001",
    "country": "United States",
    "longitude": -81.326984312027,
    "latitude": 38.534742386751,
    "phone": "3045484505",
    "website_url": "https://clendenin.beer",
    "state": "WV",
    "region": null,
    "amenities": "[]",
    "description": null,
    "hours": "{}",
    "image_url": null
  },
  {
    "name": "Dobra Zupas",
    "brewery_type": "brewpub",
    "street": "600 S Oakwood Ave",
    "address_2": null,
    "address_3": null,
    "city": "Beckley",
    "state_province": "West Virginia",
    "postal_code": "25801-5928",
    "country": "United States",
    "longitude": -81.196413,
    "latitude": 37.770874,
    "phone": "3042539872",
    "website_url": "http://www.dobrazupas.com",
    "state": "WV",
    "region": null,
    "amenities": "[]",
    "description": null,
    "hours": "{}",
    "image_url": null
  },
  {
    "name": "Eight Rivers Brewery",
    "brewery_type": "planning",
    "street": null,
    "address_2": null,
    "address_3": null,
    "city": "Hillsboro",
    "state_province": "West Virginia",
    "postal_code": "24946-0039",
    "country": "United States",
    "longitude": null,
    "latitude": null,
    "phone": "2022513083",
    "website_url": null,
    "state": "WV",
    "region": null,
    "amenities": "[]",
    "description": null,
    "hours": "{}",
    "image_url": null
  },
  {
    "name": "Fife Street Brewing",
    "brewery_type": "micro",
    "street": "180 Summers St",
    "address_2": null,
    "address_3": null,
    "city": "Charleston",
    "state_province": "West Virginia",
    "postal_code": "25301-2132",
    "country": "United States",
    "longitude": -81.640094653733,
    "latitude": 38.394956975814,
    "phone": "3043463433",
    "website_url": "http://www.fifestreetbrewing.com",
    "state": "WV",
    "region": null,
    "amenities": "[]",
    "description": null,
    "hours": "{}",
    "image_url": null
  },
  {
    "name": "Gad Dam Brewing",
    "brewery_type": "brewpub",
    "street": "922 Broad St",
    "address_2": null,
    "address_3": null,
    "city": "Summersville",
    "state_province": "West Virginia",
    "postal_code": "26651-1709",
    "country": "United States",
    "longitude": -80.860065381413,
    "latitude": 38.306645354155,
    "phone": "3048805735",
    "website_url": "http://www.gaddambrewing.com",
    "state": "WV",
    "region": null,
    "amenities": "[]",
    "description": null,
    "hours": "{}",
    "image_url": null
  },
  {
    "name": "Greenbrier Valley Brewing Co",
    "brewery_type": "micro",
    "street": "862 Industrial Park Rd Ste A",
    "address_2": null,
    "address_3": null,
    "city": "Maxwelton",
    "state_province": "West Virginia",
    "postal_code": "24957",
    "country": "United States",
    "longitude": -79.9614382,
    "latitude": 39.6272603,
    "phone": "3045204669",
    "website_url": "http://www.gvbeer.com",
    "state": "WV",
    "region": null,
    "amenities": "[]",
    "description": null,
    "hours": "{}",
    "image_url": null
  },
  {
    "name": "High Ground Brewing",
    "brewery_type": "micro",
    "street": "102 Railroad Ave",
    "address_2": null,
    "address_3": null,
    "city": "Terra Alta",
    "state_province": "West Virginia",
    "postal_code": "26764",
    "country": "United States",
    "longitude": -79.5468713,
    "latitude": 39.4441088,
    "phone": "3047891216",
    "website_url": "https://www.highgroundbrewing.co/",
    "state": "WV",
    "region": null,
    "amenities": "[]",
    "description": null,
    "hours": "{}",
    "image_url": null
  },
  {
    "name": "Mash Brewing Company",
    "brewery_type": "closed",
    "street": "122 N George St",
    "address_2": null,
    "address_3": null,
    "city": "Charles Town",
    "state_province": "West Virginia",
    "postal_code": "25414-1502",
    "country": "United States",
    "longitude": -77.86015133,
    "latitude": 39.28926882,
    "phone": "6812521788",
    "website_url": "http://www.mashbrewingcompany.com",
    "state": "WV",
    "region": null,
    "amenities": "[]",
    "description": null,
    "hours": "{}",
    "image_url": null
  },
  {
    "name": "Morgantown Brewing Co",
    "brewery_type": "brewpub",
    "street": "1291 University Ave",
    "address_2": null,
    "address_3": null,
    "city": "Morgantown",
    "state_province": "West Virginia",
    "postal_code": "26505-5450",
    "country": "United States",
    "longitude": -79.9579978,
    "latitude": 39.6305115,
    "phone": "3042926959",
    "website_url": "http://www.morgantownbrewing.com",
    "state": "WV",
    "region": null,
    "amenities": "[]",
    "description": null,
    "hours": "{}",
    "image_url": null
  },
  {
    "name": "Mountain State Brewing Co",
    "brewery_type": "micro",
    "street": "1 Nelson Blvd",
    "address_2": null,
    "address_3": null,
    "city": "Thomas",
    "state_province": "West Virginia",
    "postal_code": "26292",
    "country": "United States",
    "longitude": -79.498521,
    "latitude": 39.142037,
    "phone": "3044634500",
    "website_url": "http://www.mountainstatebrewing.com",
    "state": "WV",
    "region": null,
    "amenities": "[]",
    "description": null,
    "hours": "{}",
    "image_url": null
  },
  {
    "name": "North Branch Brewing Co",
    "brewery_type": "micro",
    "street": "101 Armstrong St Ste 1",
    "address_2": null,
    "address_3": null,
    "city": "Keyser",
    "state_province": "West Virginia",
    "postal_code": "26726-3502",
    "country": "United States",
    "longitude": -78.981671784223,
    "latitude": 39.462143670226,
    "phone": "3047884000",
    "website_url": "https://www.facebook.com/NorthBranchPub",
    "state": "WV",
    "region": null,
    "amenities": "[]",
    "description": null,
    "hours": "{}",
    "image_url": null
  },
  {
    "name": "North End Tavern & Brewery",
    "brewery_type": "brewpub",
    "street": "3500 Emerson Ave",
    "address_2": null,
    "address_3": null,
    "city": "Parkersburg",
    "state_province": "West Virginia",
    "postal_code": "26104-1806",
    "country": "United States",
    "longitude": -81.5330081,
    "latitude": 39.2874512,
    "phone": "3044285854",
    "website_url": "http://www.netbrewery.com",
    "state": "WV",
    "region": null,
    "amenities": "[]",
    "description": null,
    "hours": "{}",
    "image_url": null
  },
  {
    "name": "Old Spruce Brewing",
    "brewery_type": "brewpub",
    "street": "10 Snowshoe Dr",
    "address_2": null,
    "address_3": null,
    "city": "Snowshoe",
    "state_province": "West Virginia",
    "postal_code": "26209",
    "country": "United States",
    "longitude": -80.036148,
    "latitude": 38.416222,
    "phone": "3045721020",
    "website_url": "http://www.oldsprucetavern.com",
    "state": "WV",
    "region": null,
    "amenities": "[]",
    "description": null,
    "hours": "{}",
    "image_url": null
  },
  {
    "name": "Parkersburg Brewing Co",
    "brewery_type": "brewpub",
    "street": "707 Market St",
    "address_2": null,
    "address_3": null,
    "city": "Parkersburg",
    "state_province": "West Virginia",
    "postal_code": "26101-4628",
    "country": "United States",
    "longitude": -81.55823029,
    "latitude": 39.26705857,
    "phone": "3049161502",
    "website_url": "http://www.parkersburgbrewing.com",
    "state": "WV",
    "region": null,
    "amenities": "[]",
    "description": null,
    "hours": "{}",
    "image_url": null
  },
  {
    "name": "Pubstomper Brewing Company",
    "brewery_type": "proprietor",
    "street": "132 Tower Ln",
    "address_2": null,
    "address_3": null,
    "city": "Westover",
    "state_province": "West Virginia",
    "postal_code": "26501-4506",
    "country": "United States",
    "longitude": -79.96183033,
    "latitude": 39.63624754,
    "phone": "3046850996",
    "website_url": "http://www.pubstomperbrewing.com",
    "state": "WV",
    "region": null,
    "amenities": "[]",
    "description": null,
    "hours": "{}",
    "image_url": null
  },
  {
    "name": "Rippon Brewing Company",
    "brewery_type": "micro",
    "street": "2153 Berryville Pike",
    "address_2": null,
    "address_3": null,
    "city": "Rippon",
    "state_province": "West Virginia",
    "postal_code": "25441",
    "country": "United States",
    "longitude": -77.905289,
    "latitude": 39.21862,
    "phone": "3048392263",
    "website_url": "http://www.ripponbrewing.com",
    "state": "WV",
    "region": null,
    "amenities": "[]",
    "description": null,
    "hours": "{}",
    "image_url": null
  },
  {
    "name": "Screech Owl Brewing",
    "brewery_type": "micro",
    "street": "2323 Ralph Livengood Rd",
    "address_2": null,
    "address_3": null,
    "city": "Bruceton Mills",
    "state_province": "West Virginia",
    "postal_code": "26525-5889",
    "country": "United States",
    "longitude": -79.5659678,
    "latitude": 39.5887952,
    "phone": "3043794777",
    "website_url": "http://www.screechowlbrewing.com",
    "state": "WV",
    "region": null,
    "amenities": "[]",
    "description": null,
    "hours": "{}",
    "image_url": null
  },
  {
    "name": "Short Story Brewing",
    "brewery_type": "brewpub",
    "street": "5904 Fairmont Rd",
    "address_2": null,
    "address_3": null,
    "city": "Rivesville",
    "state_province": "West Virginia",
    "postal_code": "26588-8844",
    "country": "United States",
    "longitude": -80.119282,
    "latitude": 39.544687,
    "phone": "3049332165",
    "website_url": "http://www.shortstorybrewing.com",
    "state": "WV",
    "region": null,
    "amenities": "[]",
    "description": null,
    "hours": "{}",
    "image_url": null
  },
  {
    "name": "Sophisticated Hound Brewing Company",
    "brewery_type": "micro",
    "street": null,
    "address_2": null,
    "address_3": null,
    "city": "Princeton",
    "state_province": "West Virginia",
    "postal_code": "24739",
    "country": "United States",
    "longitude": -81.094116,
    "latitude": 37.369408,
    "phone": "3043206674",
    "website_url": "https://www.facebook.com/sophisticatedhoundbrewing",
    "state": "WV",
    "region": null,
    "amenities": "[]",
    "description": null,
    "hours": "{}",
    "image_url": null
  },
  {
    "name": "Stumptown Ales",
    "brewery_type": "micro",
    "street": "390 William Ave",
    "address_2": null,
    "address_3": null,
    "city": "Davis",
    "state_province": "West Virginia",
    "postal_code": "26260",
    "country": "United States",
    "longitude": -79.4646754,
    "latitude": 39.12899878,
    "phone": "3042595570",
    "website_url": "http://www.stumptownales.com",
    "state": "WV",
    "region": null,
    "amenities": "[]",
    "description": null,
    "hours": "{}",
    "image_url": null
  },
  {
    "name": "The Freefolk Brewery Taproom",
    "brewery_type": "micro",
    "street": "1690 Court St",
    "address_2": null,
    "address_3": null,
    "city": "Fayetteville",
    "state_province": "West Virginia",
    "postal_code": "25840-6818",
    "country": "United States",
    "longitude": -81.110004338389,
    "latitude": 38.086476379912,
    "phone": "3045746094",
    "website_url": "http://www.freefolkbrew.com",
    "state": "WV",
    "region": null,
    "amenities": "[]",
    "description": null,
    "hours": "{}",
    "image_url": null
  },
  {
    "name": "The Peddler",
    "brewery_type": "brewpub",
    "street": "835 3rd Ave",
    "address_2": null,
    "address_3": null,
    "city": "Huntington",
    "state_province": "West Virginia",
    "postal_code": "25701",
    "country": "United States",
    "longitude": -82.44527196,
    "latitude": 38.42165769,
    "phone": "3046910415",
    "website_url": null,
    "state": "WV",
    "region": null,
    "amenities": "[]",
    "description": null,
    "hours": "{}",
    "image_url": null
  },
  {
    "name": "Weathered Ground Brewery",
    "brewery_type": "micro",
    "street": "2027 Flat Top Rd",
    "address_2": null,
    "address_3": null,
    "city": "Ghent",
    "state_province": "West Virginia",
    "postal_code": "25843-9303",
    "country": "United States",
    "longitude": -81.09682583,
    "latitude": 37.64833857,
    "phone": "3047166230",
    "website_url": "http://www.weatheredgroundbrewery.com",
    "state": "WV",
    "region": null,
    "amenities": "[]",
    "description": null,
    "hours": "{}",
    "image_url": null
  },
  {
    "name": "Wheeling Brewing Co",
    "brewery_type": "closed",
    "street": "2247 Market St",
    "address_2": null,
    "address_3": null,
    "city": "Wheeling",
    "state_province": "West Virginia",
    "postal_code": "26003-3839",
    "country": "United States",
    "longitude": -80.72429082,
    "latitude": 40.05925145,
    "phone": "3049058757",
    "website_url": "http://www.wheelingbrewing.com",
    "state": "WV",
    "region": null,
    "amenities": "[]",
    "description": null,
    "hours": "{}",
    "image_url": null
  }
]